id,latitude,longitude,place
ak020921jc6m,59.9826,-153.5016,"40 km ENE of Pedro Bay, Alaska"
ak020921k4pk,60.0728,-152.309,"35 km WNW of Happy Valley, Alaska"
ak020922lnon,61.2244,-146.2648,"11 km NNE of Valdez, Alaska"
ak020922mc74,59.8993,-152.5335,"41 km WNW of Anchor Point, Alaska"
ak020922zt4q,65.8476,-150.8326,"48 km NW of Rampart, Alaska"
ak0209238dbt,69.4053,-143.7765,"81 km S of Kaktovik, Alaska"
ak020923brgb,58.3635,-133.6553,"45 km E of Juneau, Alaska"
ak020923lo19,58.3036,-133.6098,"47 km E of Juneau, Alaska"
ak020923mgzj,64.7787,-149.4072,"23 km NW of Four Mile Road, Alaska"
ak020923schk,60.672,-151.928,"33 km W of Salamatof, Alaska"
ak020923wlz5,62.3878,-149.163,"43 km NE of Y, Alaska"
ak020923xvb7,61.2241,-149.1679,"24 km ESE of Eagle River, Alaska"
ak02092473iq,61.9855,-150.8096,"30 km E of Skwentna, Alaska"
ak020924a425,61.4699,-149.8885,"6 km SSE of Big Lake, Alaska"
ak020924bnks,62.6623,-149.0934,"57 km ENE of Chase, Alaska"
ak020924coek,61.0378,-148.484,"31 km NNE of Whittier, Alaska"
ak020924d1fc,64.8099,-152.4282,"43 km SSW of Tanana, Alaska"
ak020924ficm,64.7697,-152.4537,"48 km SSW of Tanana, Alaska"
ak020924u1jk,63.0902,-151.497,"51 km SSE of Denali National Park, Alaska"
ak020924uy84,69.6194,-143.2042,"59 km SSE of Kaktovik, Alaska"
ak020924yrcz,64.8206,-149.0291,"24 km N of Four Mile Road, Alaska"
ak0209250qio,60.1365,-153.4088,"50 km E of Port Alsworth, Alaska"
ak0209251wn4,59.673,-153.0829,"58 km ESE of Pedro Bay, Alaska"
ak02092530k8,60.4564,-147.4943,"52 km NNE of Chenega, Alaska"
ak020925g570,64.7496,-147.5918,"6 km SSW of Badger, Alaska"
ak020925gbiu,61.6478,-150.3875,"13 km NNE of Susitna, Alaska"
ak0209266qap,62.5173,-149.8067,"17 km ENE of Chase, Alaska"
ak0209267sar,60.8619,-147.4972,"44 km W of Tatitlek, Alaska"
ak020926kexy,64.0914,-136.2293,"156 km E of Dawson City, Canada"
ak020926mczw,64.9901,-147.4042,"10 km ENE of Fox, Alaska"
ak020926nssz,60.3894,-138.9859,"90 km WSW of Haines Junction, Canada"
ak02093geqf2,65.6055,-147.9556,"28 km ENE of Livengood, Alaska"
ak02093gfuvm,66.337,-157.3009,"61 km S of Shungnak, Alaska"
ak02093ggbbv,63.5045,-151.0217,"35 km E of Denali National Park, Alaska"
ak02093ghalc,64.4842,-146.9717,"5 km SW of Salcha, Alaska"
ak02093ghjrb,59.5196,-153.024,"65 km WNW of Nanwalek, Alaska"
ak02093giow7,59.7631,-153.4692,"35 km E of Pedro Bay, Alaska"
ak02093gkrrj,59.2283,-152.4513,"33 km WSW of Nanwalek, Alaska"
ak02093glm20,58.1926,-155.28,"84 km NW of Karluk, Alaska"
ak02093gn6ts,62.8648,-150.5,"43 km NNE of Petersville, Alaska"
ak02093go8k5,64.8641,-148.9602,"30 km NNE of Four Mile Road, Alaska"
ak02093grh9e,51.4359,-176.1174,"60 km SE of Adak, Alaska"
ak02093h1ced,63.0492,-151.5346,"55 km S of Denali National Park, Alaska"
ak02093h7cfb,66.3077,-157.286,"65 km S of Shungnak, Alaska"
ak02093h7p2l,58.1857,-155.2804,"84 km NW of Karluk, Alaska"
ak02093h915w,58.1807,-155.2899,"84 km NW of Karluk, Alaska"
ak02093hm4ze,58.5635,-143.5778,"246 km WSW of Yakutat, Alaska"
ak02093hot9a,59.8329,-152.1878,"20 km WNW of Anchor Point, Alaska"
ak02093hql32,57.1269,-155.5466,"82 km SW of Karluk, Alaska"
ak02093hs17c,60.399,-139.0037,"90 km WSW of Haines Junction, Canada"
ak02093hs27k,64.7552,-152.4193,"49 km SSW of Tanana, Alaska"
ak02093hts38,63.5189,-150.7429,"48 km E of Denali National Park, Alaska"
ak02093hx8pp,61.0392,-159.2079,"59 km S of Chuathbaluk, Alaska"
ak02093iaa20,59.5966,-153.0835,"61 km ESE of Pedro Bay, Alaska"
ak02093ianxr,63.4969,-151.0045,"36 km E of Denali National Park, Alaska"
ak02093id4mn,64.7135,-148.5493,"29 km WSW of Ester, Alaska"
ak02093idzc1,58.5174,-143.5515,"247 km WSW of Yakutat, Alaska"
ak02093ig1fa,51.8361,-177.3711,"50 km W of Adak, Alaska"
ak02093ig2ti,58.3319,-133.4657,"56 km E of Juneau, Alaska"
ak02093iiftz,56.4232,-148.4232,"269 km ESE of Chiniak, Alaska"
ak02093iuetk,66.953,-156.5641,"14 km ENE of Kobuk, Alaska"
ak02093iwjn1,58.3706,-133.5758,"50 km E of Juneau, Alaska"
ak02093j1jqs,64.6345,-149.8474,"34 km W of Four Mile Road, Alaska"
ak02093j2j1x,61.2436,-149.6794,"2 km WSW of Elmendorf Air Force Base, Alaska"
ak02093j56xo,65.2366,-166.7935,"3 km SE of Port Clarence, Alaska"
ak02093jeua5,58.9984,-152.202,"42 km SSW of Nanwalek, Alaska"
ak02093jk7is,63.3724,-151.8172,"19 km SSW of Denali National Park, Alaska"
ak02093jnmqt,58.3945,-133.5401,"52 km E of Juneau, Alaska"
ak02093jouvo,58.3752,-133.5038,"54 km E of Juneau, Alaska"
ak02093jpwk5,61.0543,-151.0523,"4 km ESE of Tyonek, Alaska"
ak02093k1adw,65.5825,-134.8404,"206 km S of Fort McPherson, Canada"
ak02093k60a1,58.3284,-133.465,"56 km E of Juneau, Alaska"
ak02093k80h9,61.5934,-141.1818,"94 km E of McCarthy, Alaska"
ak02093k9wz9,58.3481,-133.499,"54 km E of Juneau, Alaska"
ak02093kajif,63.2265,-150.4971,"70 km ESE of Denali National Park, Alaska"
ak02093kl0zf,64.8604,-149.0219,"29 km N of Four Mile Road, Alaska"
ak02093koxbj,61.1063,-148.2644,"43 km NNE of Whittier, Alaska"
ak02093kphf2,61.1515,-148.1971,"49 km NNE of Whittier, Alaska"
ak02093kpy12,52.5104,-173.0423,"86 km ENE of Atka, Alaska"
ak02093kqu48,60.1469,-150.7189,"34 km NNE of Fox River, Alaska"
ak02093kr854,66.2874,-157.218,"67 km S of Shungnak, Alaska"
ak02093kuekn,61.599,-147.9321,"27 km SSW of Glacier View, Alaska"
ak02093kuvin,62.2847,-141.679,"51 km SSW of Alcan Border, Alaska"
ak02093kvp08,61.6774,-150.6562,"16 km NNW of Susitna, Alaska"
ak02093l6f42,50.9996,-177.7148,"122 km SW of Adak, Alaska"
ak02093l7j9d,66.3084,-157.274,"64 km S of Shungnak, Alaska"
ak02093l7or7,66.8118,-156.0662,"37 km ESE of Kobuk, Alaska"
ak02093l8085,64.5725,-147.5951,"23 km SSW of North Pole, Alaska"
ak02093lapvo,58.3979,-133.5409,"52 km ENE of Juneau, Alaska"
ak02093lcxwa,66.3354,-157.2397,"61 km S of Shungnak, Alaska"
ak02093ldgyp,58.3705,-133.4925,"54 km E of Juneau, Alaska"
ak02093lgbfp,61.7051,-134.9147,"110 km N of Whitehorse, Canada"
ak02093ls9gn,62.0697,-149.3705,"27 km ESE of Y, Alaska"
ak02093ltgcc,66.345,-157.2809,"60 km S of Shungnak, Alaska"
ak02093lvcnt,59.4273,-151.9255,"7 km N of Nanwalek, Alaska"
ak02093lxmqt,57.4794,-155.1543,"43 km WSW of Karluk, Alaska"
ak02093ly4vy,61.5709,-150.0377,"7 km NW of Big Lake, Alaska"
ak02093m1c8g,61.0881,-148.4279,"37 km NNE of Whittier, Alaska"
ak02093mdwza,62.6904,-149.3931,"45 km NE of Chase, Alaska"
ak02093mf0fh,61.5066,-148.811,"7 km NE of Knik River, Alaska"
ak02093mk4w9,51.8362,-177.3648,"50 km W of Adak, Alaska"
ak02093ml2gb,63.3292,-145.3381,"30 km NNE of Paxson, Alaska"
ak02093mmrjt,63.719,-148.4112,"24 km E of McKinley Park, Alaska"
ak02093mzmf0,59.8908,-153.2166,"51 km ENE of Pedro Bay, Alaska"
ak02093mzt42,65.5396,-149.5849,"27 km E of Rampart, Alaska"
ak02093n1xfu,62.1156,-150.7221,"33 km SW of Trapper Creek, Alaska"
ak02093n2gxz,58.3638,-133.5199,"53 km E of Juneau, Alaska"
ak02093n5kyp,60.4187,-152.6095,"66 km NW of Ninilchik, Alaska"
ak02093n691p,63.4945,-149.2797,"20 km NW of Cantwell, Alaska"
ak02093n84ou,63.1672,-151.3024,"46 km SSE of Denali National Park, Alaska"
ak02093na5qv,51.8386,-177.86,"84 km W of Adak, Alaska"
ak02093njzv5,62.08,-150.6831,"35 km SW of Trapper Creek, Alaska"
ak02093nm3r6,58.1804,-155.3715,"87 km NW of Karluk, Alaska"
ak02093nogt9,59.703,-152.5481,"41 km WSW of Anchor Point, Alaska"
ak02093nrae4,62.9251,-150.6981,"47 km N of Petersville, Alaska"
ak02093nrncw,63.4299,-144.9164,"27 km SSW of Dry Creek, Alaska"
ak02093nrwuj,58.3244,-133.437,"57 km E of Juneau, Alaska"
ak02093nrz0u,65.8081,-151.5226,"70 km WNW of Rampart, Alaska"
ak02093nun5f,66.1465,-151.3363,"73 km SE of New Allakaket, Alaska"
ak02093nw1ey,64.4206,-152.1449,"60 km N of Lake Minchumina, Alaska"
ak02093nw5ej,65.5885,-166.7272,"30 km NNW of Brevig Mission, Alaska"
ak02093o9p6w,58.3444,-133.4937,"54 km E of Juneau, Alaska"
ak02093o9p81,60.1565,-149.3439,"2 km ESE of Bear Creek, Alaska"
ak02093ogu5a,63.264,-148.9271,"14 km S of Cantwell, Alaska"
ak02093ohs8k,61.3433,-140.9066,"108 km E of McCarthy, Alaska"
ak02093ouyea,61.4195,-146.6423,"35 km NNW of Valdez, Alaska"
ak02093p2tcf,63.0601,-151.5323,"54 km S of Denali National Park, Alaska"
ak02093p343f,62.5606,-151.1718,"22 km WNW of Petersville, Alaska"
ak02093pdlkm,65.6747,-148.3984,"18 km NNE of Livengood, Alaska"
ak02093peu4z,54.1436,-164.3129,"95 km E of Akutan, Alaska"
ak02093pfw0p,61.852,-150.1168,"12 km NNW of Willow, Alaska"
ak02093pgyvn,54.4619,-161.7305,"76 km SSE of King Cove, Alaska"
ak02093pip1s,63.1143,-149.1982,"33 km SSW of Cantwell, Alaska"
ak02093pj399,64.3388,-150.1605,"47 km W of Anderson, Alaska"
ak02093plrtk,69.3934,-143.4911,"82 km S of Kaktovik, Alaska"
ak02093pmds5,62.9325,-150.7904,"48 km N of Petersville, Alaska"
ak02093pz8fi,51.5255,-176.6874,"38 km S of Adak, Alaska"
ak02093pzhhj,60.9748,-152.0342,"49 km WSW of Tyonek, Alaska"
ak02093q2ht3,61.2461,-151.4341,"22 km WNW of Beluga, Alaska"
ak02093q2uma,51.1871,179.1976,"299 km WSW of Adak, Alaska"
ak02093q5sw8,58.2343,-155.1837,"85 km NNW of Karluk, Alaska"
ak02093q98dn,63.4566,-148.8998,"7 km NNE of Cantwell, Alaska"
ak02093qkdpu,61.1529,-140.0483,"144 km WNW of Haines Junction, Canada"
ak02093qlbmo,61.4583,-149.8997,"7 km SSE of Big Lake, Alaska"
ak02093qor5q,59.6094,-152.8213,"58 km WNW of Nanwalek, Alaska"
ak02093qpy5u,60.2189,-152.8221,"66 km WNW of Ninilchik, Alaska"
ak02093qra9k,51.8607,-177.35,"49 km W of Adak, Alaska"
ak02093qrrcn,58.3669,-133.5413,"51 km E of Juneau, Alaska"
ak02093qscl3,60.4596,-142.8637,"108 km S of McCarthy, Alaska"
ak02093qsivd,59.7514,-151.8329,"2 km S of Anchor Point, Alaska"
ak02093qtnfx,61.6879,-151.0017,"30 km WNW of Susitna, Alaska"
ak02093qtw5m,62.8327,-148.5322,"65 km SSE of Cantwell, Alaska"
ak02093qvs98,63.0948,-149.2341,"36 km SSW of Cantwell, Alaska"
ak02093raesx,61.5721,-146.3491,"49 km N of Valdez, Alaska"
ak02093raro6,58.3344,-133.4815,"55 km E of Juneau, Alaska"
ak02093razvc,51.9386,-175.0106,"62 km WSW of Atka, Alaska"
ak02093rczxr,63.3213,-150.692,"57 km ESE of Denali National Park, Alaska"
ak02093rdrwn,51.5102,-176.044,"57 km SE of Adak, Alaska"
ak02093rfi31,57.3438,-153.8778,"22 km SSE of Larsen Bay, Alaska"
ak02093rry2d,66.3467,-157.2644,"60 km S of Shungnak, Alaska"
ak02093rtmja,51.7814,-179.9208,"226 km W of Adak, Alaska"
ak02093ruj0q,60.4849,-142.9476,"105 km S of McCarthy, Alaska"
ak02093rv5ld,54.15,-165.9717,"12 km W of Akutan, Alaska"
ak02093rwx5n,60.1801,-147.0751,"53 km ENE of Chenega, Alaska"
ak02093s1jtv,58.3843,-133.5083,"54 km E of Juneau, Alaska"
ak02093sir29,55.1923,-161.034,"37 km WSW of Sand Point, Alaska"
ak02093slk6b,68.0641,-162.8252,"3 km NE of Red Dog Mine, Alaska"
ak02093sysq3,54.3447,-162.6169,"76 km SE of False Pass, Alaska"
ak02093syzv6,51.7717,-177.1681,"38 km WSW of Adak, Alaska"
ak02093sza7m,58.8601,-154.581,"65 km S of Kokhanok, Alaska"
ak02093t0ci0,51.741,-177.1067,"35 km WSW of Adak, Alaska"
ak02093t1ddx,51.1711,-179.0402,"184 km WSW of Adak, Alaska"
ak02093t6cfk,66.3397,-157.3034,"61 km S of Shungnak, Alaska"
ak02093t7knv,53.148,-162.9801,"191 km S of False Pass, Alaska"
ak02093tnw71,64.252,-148.5847,"29 km E of Clear, Alaska, Alaska"
ak02093tpu9e,60.5908,-151.594,"15 km W of Salamatof, Alaska"
ak02093ttvgj,58.3419,-133.4958,"54 km E of Juneau, Alaska"
ak02093u44qp,64.9732,-147.369,"11 km E of Fox, Alaska"
ak02093u5w2u,58.3757,-133.5425,"52 km E of Juneau, Alaska"
ak02093ueiof,64.9975,-150.2839,"16 km E of Manley Hot Springs, Alaska"
ak020953ye5t,66.3162,-157.3325,"64 km S of Shungnak, Alaska"
ak0209542ldg,58.2924,-133.5903,"48 km E of Juneau, Alaska"
ak020954a5kd,58.3671,-133.6164,"47 km E of Juneau, Alaska"
ak020954miel,60.2458,-153.1192,"66 km E of Port Alsworth, Alaska"
ak020954mppv,63.412,-145.0064,"31 km SSW of Dry Creek, Alaska"
ak020954peia,58.3617,-133.5909,"49 km E of Juneau, Alaska"
ak020954rgm9,60.2183,-151.0353,"18 km SE of Kasilof, Alaska"
ak020954sjd8,58.224,-133.7222,"41 km ESE of Juneau, Alaska"
ak020954vuaj,63.4794,-148.859,"10 km NNE of Cantwell, Alaska"
ak02095559kt,62.6815,-145.5198,"43 km NNW of Gakona, Alaska"
ak0209557i50,58.8566,-154.3375,"69 km SSE of Kokhanok, Alaska"
ak020955zh8p,58.3798,-133.6218,"47 km E of Juneau, Alaska"
ak020956dlqz,62.8005,-149.9148,"40 km NNE of Chase, Alaska"
ak020956i9xh,59.5628,-152.1943,"27 km NW of Nanwalek, Alaska"
ak020956lxre,51.8644,-177.8091,"80 km W of Adak, Alaska"
ak020956x92v,64.5853,-148.8631,"11 km ENE of Nenana, Alaska"
ak020956z735,62.9766,-151.314,"60 km NNW of Petersville, Alaska"
ak0209570qcs,61.6893,-150.3412,"17 km WSW of Willow, Alaska"
ak0209571n49,63.3365,-151.5006,"25 km SSE of Denali National Park, Alaska"
ak0209574uat,60.7739,-151.4192,"11 km NW of Nikiski, Alaska"
ak020957kw0w,62.0682,-148.3771,"30 km N of Chickaloon, Alaska"
ak020957lzbv,61.0759,-152.3771,"66 km W of Tyonek, Alaska"
ak020957qwlc,61.6809,-150.3059,"16 km WSW of Willow, Alaska"
ak020958czen,61.0554,-146.3612,"8 km S of Valdez, Alaska"
ak020958exps,69.2096,-144.4099,"107 km SSW of Kaktovik, Alaska"
ak020958gs0o,61.056,-148.4769,"33 km NNE of Whittier, Alaska"
ak020958qo9m,63.2915,-151.6953,"27 km S of Denali National Park, Alaska"
ak020958s5ha,61.8655,-147.9748,"18 km WNW of Glacier View, Alaska"
ak020958vchv,61.3165,-150.0921,"7 km SW of Point MacKenzie, Alaska"
ak020959glkx,61.0916,-150.8071,Southern Alaska
ak020959i23p,56.4693,-156.197,"134 km WSW of Akhiok, Alaska"
ak02095a2wkd,58.3132,-133.6177,"47 km E of Juneau, Alaska"
ak02095ai31x,61.6603,-151.6222,"38 km SSW of Skwentna, Alaska"
ak02095ajzpz,64.727,-149.1398,"13 km N of Four Mile Road, Alaska"
ak02095ao2az,68.8349,-146.6945,"92 km NNW of Arctic Village, Alaska"
ak02095b3jlk,60.0636,-152.9344,"68 km W of Happy Valley, Alaska"
ak02095b584l,64.2433,-149.9582,"37 km W of Clear, Alaska, Alaska"
ak02095bt3p9,61.5672,-146.1948,"49 km N of Valdez, Alaska"
ak02095ci5qk,61.6543,-148.0313,"26 km SW of Glacier View, Alaska"
ak02095d2jmn,64.7732,-161.8635,"25 km NE of Elim, Alaska"
ak02095d7wrc,60.3629,-151.2816,"1 km ESE of Cohoe, Alaska"
ak02095dibp7,60.9098,-153.2261,"98 km NE of Port Alsworth, Alaska"
ak02095djmjz,65.5922,-162.3359,"56 km SSE of Deering, Alaska"
ak02095dqw2q,59.9795,-152.173,"24 km W of Happy Valley, Alaska"
ak02095e8hrx,60.4612,-159.0308,"124 km S of Chuathbaluk, Alaska"
ak02095eamuw,62.3795,-149.6886,"22 km ENE of Talkeetna, Alaska"
ak02095ebbyb,66.3094,-157.6389,"68 km SSW of Shungnak, Alaska"
ak02095edeh1,66.3252,-157.2001,"62 km S of Shungnak, Alaska"
ak02095ep8l8,59.9737,-152.8908,"63 km WNW of Anchor Point, Alaska"
ak02095er36y,62.4061,-149.1689,"44 km NE of Y, Alaska"
ak02095fd7jm,67.3729,-143.1901,"83 km NNE of Chalkyitsik, Alaska"
ak02095fh4yg,63.2984,-151.3325,"33 km SE of Denali National Park, Alaska"
ak02095fijgo,60.3327,-153.0717,"70 km ENE of Port Alsworth, Alaska"
ak02095flsnw,68.8145,-146.4838,"85 km NNW of Arctic Village, Alaska"
ak02095g4pxd,62.4644,-151.4556,"35 km W of Petersville, Alaska"
ak02095h3jg7,64.7047,-148.9662,"13 km NNE of Four Mile Road, Alaska"
ak02095h82fe,63.4625,-148.8882,"8 km NNE of Cantwell, Alaska"
ak02095heavb,65.2728,-155.4388,"59 km N of Ruby, Alaska"
ak02095horg0,64.7405,-147.6038,"7 km SSW of Badger, Alaska"
ak02095hvfkg,59.8102,-153.346,"42 km E of Pedro Bay, Alaska"
ak02096rknr7,61.0202,-147.5544,"50 km WNW of Tatitlek, Alaska"
ak02096rli1c,63.2178,-151.3997,"39 km SSE of Denali National Park, Alaska"
ak02096s7fg7,63.7514,-148.4462,"23 km E of McKinley Park, Alaska"
ak02096s8xzx,59.6947,-150.7898,"20 km SSE of Fox River, Alaska"
ak02096sc5m5,59.8391,-152.6755,"47 km W of Anchor Point, Alaska"
ak02096sveg9,60.6268,-149.1717,"18 km NE of Moose Pass, Alaska"
ak02096sy8ti,61.6603,-150.9342,"25 km WNW of Susitna, Alaska"
ak02096t9qcn,62.9464,-151.4731,"61 km NW of Petersville, Alaska"
ak02096tdn9l,62.1623,-152.1151,"42 km WNW of Skwentna, Alaska"
ak02096twz8l,63.4449,-145.9744,"43 km NNW of Paxson, Alaska"
ak02096u4kv0,61.5118,-149.927,"1 km SE of Big Lake, Alaska"
ak02096uhz1h,61.0865,-146.8745,"26 km NNW of Tatitlek, Alaska"
ak02096ul6nr,61.2701,-146.8781,"32 km WNW of Valdez, Alaska"
ak02096umlqi,60.9147,-150.3909,"Kenai Peninsula, Alaska"
ak02096up8v8,67.3539,-156.3775,"54 km NNE of Kobuk, Alaska"
ak02096upf67,61.5892,-141.8323,"60 km ENE of McCarthy, Alaska"
ak02096vawhj,61.7996,-150.6645,"29 km NNW of Susitna, Alaska"
ak02096veo9m,61.0895,-148.3678,"39 km NNE of Whittier, Alaska"
ak02096vpoo9,61.8311,-148.8376,"7 km NNW of Sutton-Alpine, Alaska"
ak02096vqh2i,61.4034,-151.8423,"50 km NW of Beluga, Alaska"
ak02096vso8q,61.4339,-150.0926,"10 km NW of Point MacKenzie, Alaska"
ak02096wambz,60.667,-152.076,"41 km W of Salamatof, Alaska"
ak02096wcqid,61.3446,-146.6885,"30 km NW of Valdez, Alaska"
ak02096wdudl,63.3873,-149.8206,"43 km W of Cantwell, Alaska"
ak02096wgfce,59.99,-152.5582,"46 km W of Happy Valley, Alaska"
ak02096wgw2o,58.3894,-133.6394,"46 km ENE of Juneau, Alaska"
ak02096whrpo,61.405,-146.9828,"45 km NW of Valdez, Alaska"
ak02096wxv60,60.083,-151.6953,"Kenai Peninsula, Alaska"
ak02096wzi8x,58.3165,-155.0618,"90 km NNW of Karluk, Alaska"
ak02096x4312,66.3093,-157.1818,"64 km S of Shungnak, Alaska"
ak02096x72fk,67.3904,-156.3814,"58 km NNE of Kobuk, Alaska"
ak02096xgxzx,59.1096,-152.1501,"30 km SSW of Nanwalek, Alaska"
ak02096xjmy9,66.2094,-157.1712,"66 km NNW of Huslia, Alaska"
ak02096xlrzq,61.4084,-150.0377,"6 km NNW of Point MacKenzie, Alaska"
ak02096xnhde,60.873,-150.7137,"5 km SSW of Point Possession, Alaska"
ak02096ydgt8,64.88,-147.7521,"3 km NE of College, Alaska"
ak02096yshhx,61.6585,-144.7511,"12 km ESE of Kenny Lake, Alaska"
ak02096ysqm2,66.6617,-148.3615,"54 km NW of Beaver, Alaska"
ak02096yunar,57.3583,-155.5615,"70 km WSW of Karluk, Alaska"
ak02096zbyps,63.4401,-151.1123,"32 km ESE of Denali National Park, Alaska"
ak02096zga71,69.6843,-144.3247,"56 km SSW of Kaktovik, Alaska"
ak02096zhif4,67.1784,-155.8598,"53 km ENE of Kobuk, Alaska"
ak02096zhkhr,61.444,-149.3787,"14 km ESE of Knik-Fairview, Alaska"
ak02096ztie4,61.4414,-149.3955,Southern Alaska
ak02096zz2bg,62.5636,-151.1116,"19 km WNW of Petersville, Alaska"
ak0209700nkn,61.3259,-152.2644,"66 km WNW of Beluga, Alaska"
ak020970eys4,61.2593,-146.7267,"24 km NW of Valdez, Alaska"
ak020970mai3,61.1636,-139.7042,"127 km WNW of Haines Junction, Canada"
ak020970nidh,63.1783,-150.8004,"61 km SE of Denali National Park, Alaska"
ak020970qcj7,60.1742,-148.2981,"19 km NW of Chenega, Alaska"
ak020971a0pe,60.1748,-150.8473,"29 km SE of Kasilof, Alaska"
ak020971a2ue,68.8592,-147.579,"116 km NW of Arctic Village, Alaska"
ak020971ug2u,61.4986,-149.9148,"3 km SE of Big Lake, Alaska"
ak020972xhek,59.1862,-152.4298,"34 km WSW of Nanwalek, Alaska"
ak020973mnww,63.1512,-152.7145,"65 km SW of Denali National Park, Alaska"
ak02097443ey,63.2999,-151.3683,"32 km SSE of Denali National Park, Alaska"
ak020974abpr,58.2784,-133.6842,"43 km E of Juneau, Alaska"
ak020974ar9o,63.0314,-149.1777,"41 km SSW of Cantwell, Alaska"
ak020974l03h,58.8443,-152.6961,"72 km SW of Nanwalek, Alaska"
ak020974o6nr,62.8492,-150.2212,"45 km N of Chase, Alaska"
ak020975eux8,50.4829,-179.988,"280 km SW of Adak, Alaska"
ak020975eyju,64.9488,-147.4998,"5 km E of Fox, Alaska"
ak02098f724x,66.3018,-157.2294,"65 km S of Shungnak, Alaska"
ak02098f8b3x,62.1379,-154.9259,"91 km NNE of Lime Village, Alaska"
ak02098ftz7x,61.3758,-151.3215,"29 km NNW of Beluga, Alaska"
ak02098gdo24,61.4687,-149.069,"8 km W of Knik River, Alaska"
ak02098ghzgl,61.1414,-150.9809,"5 km E of Beluga, Alaska"
ak02098gj1an,61.8995,-150.2987,"21 km NW of Willow, Alaska"
ak02098gj377,65.4903,-148.1296,"19 km ESE of Livengood, Alaska"
ak02098gtkrj,61.0541,-148.4835,"33 km NNE of Whittier, Alaska"
ak02098gyxcw,66.2643,-156.7086,"64 km NNW of Huslia, Alaska"
ak02098gyyo8,59.4424,-152.5645,"37 km WNW of Nanwalek, Alaska"
ak02098h0n9m,64.8861,-147.9409,"5 km NE of Ester, Alaska"
ak02098h37tf,56.6722,-157.4488,"72 km NE of Chignik, Alaska"
ak02098hqjd2,60.7039,-147.5303,"49 km WSW of Tatitlek, Alaska"
ak02098i1bv9,60.7496,-152.505,"66 km WNW of Salamatof, Alaska"
ak02098i2lfb,62.2849,-148.6864,"55 km NNW of Chickaloon, Alaska"
ak02098i9of4,58.3474,-133.5757,"49 km E of Juneau, Alaska"
ak02098iblgd,61.4715,-150.0902,"9 km SW of Big Lake, Alaska"
ak02098iq4rw,60.8288,-147.0223,"19 km WSW of Tatitlek, Alaska"
ak02098itkdl,58.177,-155.3596,"86 km NW of Karluk, Alaska"
ak02098iu0o9,58.1795,-155.331,"85 km NW of Karluk, Alaska"
ak02098iv1k5,60.9725,-147.979,"44 km ENE of Whittier, Alaska"
ak02098iwq7f,58.5059,-154.1794,"89 km WNW of Aleneva, Alaska"
ak02098j70ab,62.2005,-149.5791,"14 km ENE of Y, Alaska"
ak02098jf8u0,65.2157,-150.0671,"32 km S of Rampart, Alaska"
ak02098ji071,59.1166,-153.7752,"63 km SE of Pope-Vannoy Landing, Alaska"
ak02098jxga6,64.9386,-148.1918,"13 km NW of Ester, Alaska"
ak02098jz6ke,57.9526,-157.0417,"35 km SE of Egegik, Alaska"
ak02098ketzf,63.7064,-149.4692,"27 km W of McKinley Park, Alaska"
ak02098kfwvw,63.5255,-151.103,"30 km E of Denali National Park, Alaska"
ak02098kk3au,69.5949,-144.2358,"64 km SSW of Kaktovik, Alaska"
ak02098l318a,62.2015,-150.6221,"24 km WSW of Trapper Creek, Alaska"
ak02098lkk41,67.3824,-156.0531,"64 km NE of Kobuk, Alaska"
ak02098ltcqz,63.4663,-150.8723,"43 km ESE of Denali National Park, Alaska"
ak02098m6fil,60.5775,-152.4819,"63 km W of Salamatof, Alaska"
ak02098m8rm5,58.649,-152.6248,"67 km NNE of Aleneva, Alaska"
ak02098mb7hz,61.9267,-149.2951,"20 km N of Fishhook, Alaska"
ak02098mfoco,63.9505,-148.7383,"15 km NE of Healy, Alaska"
ak02098mwlyx,61.3098,-147.0111,"40 km WNW of Valdez, Alaska"
ak02098mx16o,60.8416,-150.5915,"10 km SSE of Point Possession, Alaska"
ak02098n1245,59.8698,-153.2663,"47 km E of Pedro Bay, Alaska"
ak02098nh6qx,65.4177,-153.3856,"66 km WNW of Tanana, Alaska"
ak02098ninjo,66.3103,-157.2688,"64 km S of Shungnak, Alaska"
ak02098nl9xo,63.2847,-150.4175,"71 km ESE of Denali National Park, Alaska"
ak02098nyiw8,65.1756,-150.2507,northern Alaska
ak02098o26k1,65.4328,-153.423,"69 km WNW of Tanana, Alaska"
ak02098o2mt4,61.0937,-148.4303,"38 km NNE of Whittier, Alaska"
ak02098o8u5d,58.2712,-153.9248,"Kodiak Island region, Alaska"
ak02098ok67m,64.4502,-147.8668,"40 km S of South Van Horn, Alaska"
ak02098omzgy,66.0503,-150.7943,"67 km NNW of Rampart, Alaska"
ak02098opxpg,65.1295,-161.7563,"35 km NW of Koyuk, Alaska"
ak02098osruq,58.3809,-154.7233,"91 km N of Karluk, Alaska"
ak02098pvc55,61.2334,-146.3515,"11 km N of Valdez, Alaska"
ak02098qn51b,68.9723,-147.323,"119 km NW of Arctic Village, Alaska"
ak02098r14rr,58.1553,-155.2712,"81 km NW of Karluk, Alaska"
ak02098r76wp,59.0478,-150.6019,"70 km SSE of Halibut Cove, Alaska"
ak02098rq8f0,61.4166,-152.2626,"70 km WNW of Beluga, Alaska"
ak02098rr950,58.3926,-153.8808,"68 km WNW of Aleneva, Alaska"
ak02098rtgio,61.4165,-152.2288,"68 km WNW of Beluga, Alaska"
ak02098s99zi,59.2017,-153.7527,"57 km SE of Pope-Vannoy Landing, Alaska"
ak02098sbdmz,62.8951,-150.7689,"44 km N of Petersville, Alaska"
ak0209a2onjc,62.9351,-151.3742,"57 km NNW of Petersville, Alaska"
ak0209a2uf6f,61.3638,-147.6298,"49 km S of Glacier View, Alaska"
ak0209a3en2j,61.0685,-148.3959,"36 km NNE of Whittier, Alaska"
ak0209a3ydtl,64.234,-147.4639,"42 km SW of Salcha, Alaska"
ak0209a4lmxd,61.3371,-150.0773,"5 km WSW of Point MacKenzie, Alaska"
ak0209a4mskm,66.2425,-157.0217,"66 km NNW of Huslia, Alaska"
ak0209a5431y,59.6564,-153.0939,"58 km ESE of Pedro Bay, Alaska"
ak0209a59131,64.5137,-147.8893,"33 km S of South Van Horn, Alaska"
ak0209a59ovw,61.702,-151.2717,"32 km SSE of Skwentna, Alaska"
ak0209a6gzne,61.4174,-152.2333,"68 km WNW of Beluga, Alaska"
ak0209a6rfs0,66.2961,-157.2279,"66 km S of Shungnak, Alaska"
ak0209a6ryje,60.7876,-151.4422,"Kenai Peninsula, Alaska"
ak0209a6wfzu,62.4571,-152.1457,Central Alaska
ak0209a7xoxh,66.2913,-157.2073,"66 km S of Shungnak, Alaska"
ak0209a8m3sc,63.0807,-150.3823,"68 km NNE of Petersville, Alaska"
ak0209a95edt,59.8133,-136.7405,"48 km NW of Mosquito Lake, Alaska"
ak0209a9at7i,67.5012,-143.763,northern Alaska
ak0209a9qnoo,63.4354,-151.1333,"31 km ESE of Denali National Park, Alaska"
ak0209a9w2i0,63.0506,-148.6827,"40 km SSE of Cantwell, Alaska"
ak0209a9wmc3,62.8445,-150.2825,"45 km NNW of Chase, Alaska"
ak0209a9xy4s,64.6274,-148.0281,"23 km SSW of South Van Horn, Alaska"
ak0209aaazi4,62.1833,-151.3603,"21 km N of Skwentna, Alaska"
ak0209aadtip,69.1713,-144.4255,"111 km SSW of Kaktovik, Alaska"
ak0209aafi8j,62.1807,-153.9342,"95 km SSE of Nikolai, Alaska"
ak0209aajm1q,61.0631,-151.419,"15 km W of Tyonek, Alaska"
ak0209aawn4f,61.0287,-148.3367,"34 km NE of Whittier, Alaska"
ak0209aaz94u,64.8113,-149.1822,"23 km N of Four Mile Road, Alaska"
ak0209ab68yv,67.9935,-144.7828,"34 km ESE of Arctic Village, Alaska"
ak0209abjktu,61.507,-146.6051,"44 km NNW of Valdez, Alaska"
ak0209abl4rv,62.3947,-150.6885,"12 km SSE of Petersville, Alaska"
ak0209abt2ug,64.5725,-147.994,"28 km SSW of South Van Horn, Alaska"
ak0209abtawb,64.6186,-149.2703,"7 km WNW of Four Mile Road, Alaska"
ak0209ac70a4,61.9583,-150.5008,"33 km NW of Willow, Alaska"
ak0209adcjse,53.8645,-166.7635,"14 km W of Dutch Harbor, Alaska"
ak0209adii7e,64.6452,-164.014,"22 km ENE of Solomon, Alaska"
ak0209adwb0d,68.9662,-147.7547,"130 km NW of Arctic Village, Alaska"
ak0209adxb90,64.0677,-152.6665,"26 km NW of Lake Minchumina, Alaska"
ak0209adzhzs,68.923,-147.8372,"129 km NW of Arctic Village, Alaska"
ak0209adznzy,59.802,-152.5207,"38 km W of Anchor Point, Alaska"
ak0209af51r3,61.0918,-148.4834,"37 km NNE of Whittier, Alaska"
ak0209af8pvv,61.1144,-148.4705,"39 km NNE of Whittier, Alaska"
ak0209afd9it,63.3459,-149.4441,"25 km WSW of Cantwell, Alaska"
ak0209agl310,63.9156,-148.9174,"6 km NNE of Healy, Alaska"
ak0209bq6ibt,61.4799,-149.9187,"5 km SSE of Big Lake, Alaska"
ak0209bqdtc1,62.0599,-147.9666,"32 km NNW of Glacier View, Alaska"
ak0209bqqoc8,66.1673,-157.1773,"63 km NW of Huslia, Alaska"
ak0209bqssr2,61.0317,-148.0821,"43 km NE of Whittier, Alaska"
ak0209bqwwwp,58.3929,-133.635,"47 km ENE of Juneau, Alaska"
ak0209bqzvms,58.1935,-155.4778,"88 km SE of King Salmon, Alaska"
ak0209brkefs,58.3505,-133.5839,"49 km E of Juneau, Alaska"
ak0209bs0t3w,61.4753,-146.4096,"38 km N of Valdez, Alaska"
ak0209bs5fu3,66.5436,-157.0115,"38 km S of Shungnak, Alaska"
ak0209bs5mu5,61.081,-148.3773,"38 km NNE of Whittier, Alaska"
ak0209bskn4j,66.2888,-157.2453,"67 km S of Shungnak, Alaska"
ak0209bsodvp,64.6824,-148.7909,"18 km ENE of Four Mile Road, Alaska"
ak0209bspclt,63.0054,-151.5573,"60 km S of Denali National Park, Alaska"
ak0209bt80vh,62.4568,-151.2764,"26 km W of Petersville, Alaska"
ak0209bt8xq3,63.2183,-149.3803,"28 km SW of Cantwell, Alaska"
ak0209btx9u7,58.3329,-133.5901,"48 km E of Juneau, Alaska"
ak0209bu9t87,58.3387,-133.575,"49 km E of Juneau, Alaska"
ak0209buatv2,59.9939,-153.4984,"41 km NE of Pedro Bay, Alaska"
ak0209bucd8n,62.3406,-149.6715,"22 km NNE of Y, Alaska"
ak0209buvw2k,66.2763,-157.2473,"68 km S of Shungnak, Alaska"
ak0209buzqy9,61.6737,-149.9189,"7 km NW of Houston, Alaska"
ak0209bv21nd,59.6448,-153.1862,"54 km ESE of Pedro Bay, Alaska"
ak0209bw2ofo,61.08,-151.1338,"1 km N of Tyonek, Alaska"
ak0209bw3el6,61.3905,-150.0678,"5 km NW of Point MacKenzie, Alaska"
ak0209bw5wyl,62.3268,-149.3852,"30 km NE of Y, Alaska"
ak0209bwb410,58.3299,-133.5573,"50 km E of Juneau, Alaska"
ak0209bwcjac,61.43,-146.6974,"38 km NNW of Valdez, Alaska"
ak0209bwotxq,69.5663,-143.9928,"64 km SSW of Kaktovik, Alaska"
ak0209bwrco4,63.1034,-150.6256,"68 km N of Petersville, Alaska"
ak0209bwzfvf,58.3519,-133.5862,"49 km E of Juneau, Alaska"
ak0209bxy71b,58.8747,-154.5059,"64 km SSE of Kokhanok, Alaska"
ak0209byfu55,58.3683,-133.624,"47 km E of Juneau, Alaska"
ak0209byg6hp,62.6848,-151.0935,"26 km NW of Petersville, Alaska"
ak0209byl5ge,61.3261,-147.2829,"54 km WNW of Valdez, Alaska"
ak0209bz2jp6,59.35,-152.0901,"9 km W of Nanwalek, Alaska"
ak0209bz4flb,66.2664,-157.5481,"71 km SSW of Shungnak, Alaska"
ak0209bzpnxc,61.6574,-139.3915,"142 km NW of Haines Junction, Canada"
ak0209bzqaq8,64.8063,-147.7033,"3 km S of Fairbanks, Alaska"
ak0209bzxboo,59.0916,-137.8717,"111 km WSW of Covenant Life, Alaska"
ak0209c0tjl7,63.4914,-144.1566,"18 km SSW of Dot Lake Village, Alaska"
ak0209c123ov,62.1951,-151.2778,"23 km NNE of Skwentna, Alaska"
ak0209c1g9nt,60.4204,-152.4536,"59 km NW of Ninilchik, Alaska"
ak0209c1ijn8,62.3031,-151.1471,"29 km SW of Petersville, Alaska"
ak0209c2onwb,59.7379,-153.1323,"55 km E of Pedro Bay, Alaska"
ak0209c2sxa5,64.597,-160.3761,"47 km NE of Shaktoolik, Alaska"
ak0209c2tsgc,62.1517,-152.1659,"44 km WNW of Skwentna, Alaska"
ak0209c3aj5p,62.3927,-148.1276,"68 km NNE of Chickaloon, Alaska"
ak0209c3w2g9,66.2987,-157.2291,"65 km S of Shungnak, Alaska"
ak0209c3y3hd,66.2913,-157.3763,"67 km S of Shungnak, Alaska"
ak0209c44n4u,59.8666,-152.821,"56 km W of Anchor Point, Alaska"
ak0209ddo7el,60.9332,-151.2038,"15 km SSW of Tyonek, Alaska"
ak0209ddywmo,61.4886,-149.8874,"5 km SE of Big Lake, Alaska"
ak0209de8nw4,66.318,-157.1992,"63 km S of Shungnak, Alaska"
ak0209dejhy1,63.2281,-150.4681,"71 km ESE of Denali National Park, Alaska"
ak0209devwfx,63.322,-149.6419,"35 km WSW of Cantwell, Alaska"
ak0209dff4vb,67.3132,-143.6401,"73 km N of Chalkyitsik, Alaska"
ak0209dfhzrn,61.5794,-149.7608,"6 km SSE of Houston, Alaska"
ak0209dg5oqn,60.7706,-150.6986,"16 km S of Point Possession, Alaska"
ak0209dg7vev,61.4105,-149.983,"5 km N of Point MacKenzie, Alaska"
ak0209dga38k,60.9933,-151.0134,"10 km SE of Tyonek, Alaska"
ak0209dglzqz,58.3259,-133.6151,"47 km E of Juneau, Alaska"
ak0209dgrv1y,61.1352,-150.1165,"14 km SW of Anchorage, Alaska"
ak0209dgsp9y,65.0114,-151.7589,"23 km SE of Tanana, Alaska"
ak0209dgtbe6,58.3461,-133.6054,"47 km E of Juneau, Alaska"
ak0209dh7x3s,59.8304,-152.8649,"58 km W of Anchor Point, Alaska"
ak0209dhczmf,54.7895,-158.8231,"123 km ESE of Sand Point, Alaska"
ak0209dhdu3d,55.8476,-159.4431,"6 km SSE of Ivanof Bay, Alaska"
ak0209dhekx8,55.0424,-158.6763,"101 km SSE of Perryville, Alaska"
ak0209dhg0pj,54.5645,-160.7145,"87 km S of Sand Point, Alaska"
ak0209dhif1e,54.7636,-160.3316,"64 km S of Sand Point, Alaska"
ak0209dhivdi,55.105,-158.3232,"103 km SSE of Perryville, Alaska"
ak0209dhtcvc,55.1174,-158.3266,"102 km SSE of Perryville, Alaska"
ak0209dhwjsr,55.1417,-158.3751,"98 km SSE of Perryville, Alaska"
ak0209dhyf9p,54.8104,-160.3428,"59 km S of Sand Point, Alaska"
ak0209dj9u5v,55.1313,-159.0885,"86 km S of Perryville, Alaska"
ak0209djan15,54.6831,-160.7489,"74 km SSW of Sand Point, Alaska"
ak0209djb68p,54.8347,-160.2612,"57 km SSE of Sand Point, Alaska"
ak0209djbiac,54.8481,-158.4955,"125 km SSE of Perryville, Alaska"
ak0209djmxho,55.0659,-158.6912,Alaska Peninsula
ak0209djoddd,55.0074,-160.0762,"45 km SE of Sand Point, Alaska"
ak0209djogvv,54.8657,-159.7705,"70 km SE of Sand Point, Alaska"
ak0209djp1hp,54.8136,-158.2757,"134 km SSE of Perryville, Alaska"
ak0209djq32v,54.6676,-160.1199,"78 km SSE of Sand Point, Alaska"
ak0209djqr2t,54.649,-160.777,"78 km SSW of Sand Point, Alaska"
ak0209djr0qe,54.9912,-158.4685,"110 km SSE of Perryville, Alaska"
ak0209djsggb,54.8609,-158.986,"110 km ESE of Sand Point, Alaska"
ak0209dkxd3e,54.8677,-158.3326,"127 km SSE of Perryville, Alaska"
ak0209dl43xh,54.8867,-158.2714,"126 km SSE of Perryville, Alaska"
ak0209dli6ts,54.3443,-160.3185,"111 km S of Sand Point, Alaska"
ak0209dlkl0m,54.9331,-158.3389,"120 km SSE of Perryville, Alaska"
ak0209dllwm7,54.6617,-160.9213,"79 km SSW of Sand Point, Alaska"
ak0209dlnynj,54.7337,-158.2362,"143 km SSE of Perryville, Alaska"
ak0209dm1jfm,55.1433,-159.5034,"66 km ESE of Sand Point, Alaska"
av61907953,58.2055,-155.4003333,"90 km NW of Karluk, Alaska"
av62198226,55.4868333,-162.0473333,"50 km NNE of King Cove, Alaska"
av62198281,52.0623333,-176.1536667,"Andreanof Islands, Aleutian Islands, Alaska"
av62198286,52.0788333,-176.1353333,"41 km ENE of Adak, Alaska"
av62198931,53.865,-166.7755,"15 km W of Dutch Harbor, Alaska"
av62198981,51.8611667,-177.811,"81 km W of Adak, Alaska"
av62199151,53.8663333,-166.764,"14 km W of Dutch Harbor, Alaska"
av62199231,52.0693333,-176.1281667,"41 km ENE of Adak, Alaska"
av62199236,52.0673333,-176.124,"41 km ENE of Adak, Alaska"
av62200056,52.048,-176.1065,"41 km ENE of Adak, Alaska"
av62200061,52.0496667,-176.1045,"41 km ENE of Adak, Alaska"
av62200076,52.0495,-176.1013333,"41 km ENE of Adak, Alaska"
av62200081,52.0483333,-176.1093333,"40 km ENE of Adak, Alaska"
av62200086,52.0495,-176.1048333,"41 km ENE of Adak, Alaska"
av62200186,51.8218333,-177.3465,"49 km W of Adak, Alaska"
av62200201,53.8598333,-166.7533333,"14 km WSW of Dutch Harbor, Alaska"
av62200206,53.8598333,-166.7575,"14 km WSW of Dutch Harbor, Alaska"
av62200216,53.8623333,-166.7566667,"14 km WSW of Dutch Harbor, Alaska"
av62200246,53.862,-166.7556667,"14 km WSW of Dutch Harbor, Alaska"
av62200251,52.0478333,-176.1081667,"40 km ENE of Adak, Alaska"
av62200266,52.0351667,-176.1166667,"39 km ENE of Adak, Alaska"
av62200276,52.0455,-176.1268333,"39 km ENE of Adak, Alaska"
av62200281,52.0421667,-176.1116667,"40 km ENE of Adak, Alaska"
av62200306,52.0391667,-176.1275,"39 km ENE of Adak, Alaska"
av62200316,52.0396667,-176.1203333,"39 km ENE of Adak, Alaska"
av62200321,53.8606667,-166.7566667,"14 km WSW of Dutch Harbor, Alaska"
av62200381,53.8678333,-166.7761667,"15 km W of Dutch Harbor, Alaska"
av62200386,53.8588333,-166.7638333,"14 km WSW of Dutch Harbor, Alaska"
av62200426,53.86,-166.7585,"14 km WSW of Dutch Harbor, Alaska"
av62200441,53.8635,-166.7621667,"14 km WSW of Dutch Harbor, Alaska"
av62200456,52.0431667,-176.1203333,"40 km ENE of Adak, Alaska"
av62200461,52.0528333,-176.0906667,"42 km ENE of Adak, Alaska"
av62200466,52.0441667,-176.1051667,"40 km ENE of Adak, Alaska"
av62200481,53.8578333,-166.7638333,"15 km WSW of Dutch Harbor, Alaska"
av62200496,53.8611667,-166.7541667,"14 km WSW of Dutch Harbor, Alaska"
av62200511,53.8638333,-166.7461667,"13 km WSW of Dutch Harbor, Alaska"
av62200521,53.8591667,-166.7606667,"14 km WSW of Dutch Harbor, Alaska"
av62200636,51.5531667,-178.2231667,"115 km WSW of Adak, Alaska"
av62200671,53.861,-166.7635,"14 km WSW of Dutch Harbor, Alaska"
av62200681,53.8631667,-166.7486667,"13 km WSW of Dutch Harbor, Alaska"
av62200696,52.0718333,-176.125,"41 km ENE of Adak, Alaska"
av62200721,52.0428333,-176.0925,"41 km ENE of Adak, Alaska"
av62200726,52.0526667,-176.0843333,"42 km ENE of Adak, Alaska"
av62200731,52.0365,-176.098,"41 km ENE of Adak, Alaska"
av62200871,53.8613333,-166.756,"14 km WSW of Dutch Harbor, Alaska"
av62200966,51.7251667,-177.1041667,"36 km WSW of Adak, Alaska"
av62201036,52.0898333,-176.1296667,"42 km NE of Adak, Alaska"
av62201041,52.072,-176.1283333,"41 km ENE of Adak, Alaska"
av62201076,53.86,-166.7453333,"13 km WSW of Dutch Harbor, Alaska"
av62201081,53.865,-166.745,"13 km WSW of Dutch Harbor, Alaska"
av62201181,54.1401667,-165.9493333,"11 km W of Akutan, Alaska"
av62201736,53.8705,-166.7315,"12 km W of Dutch Harbor, Alaska"
av62201921,53.8578333,-166.7535,"14 km WSW of Dutch Harbor, Alaska"
av91000013,53.86883333,-166.7771667,"15 km W of Dutch Harbor, Alaska"
av91000018,53.85816667,-166.7853333,"16 km WSW of Dutch Harbor, Alaska"
av91000023,53.86916667,-166.764,"14 km W of Dutch Harbor, Alaska"
ci37290716,35.5945,-117.3846667,"19km S of Trona, CA"
ci37290724,35.8755,-117.6831667,"21km ESE of Little Lake, CA"
ci37290844,35.6155,-117.5871667,"8km E of Ridgecrest, CA"
ci37291004,33.614,-116.6283333,"8km NNE of Anza, CA"
ci37291012,35.8871667,-117.6908333,"20km ESE of Little Lake, CA"
ci37291020,33.1833333,-116.4036667,"8km SSW of Borrego Springs, CA"
ci37450589,35.8303333,-117.6426667,"23km WNW of Searles Valley, CA"
ci37450621,35.6441667,-117.5596667,"11km ENE of Ridgecrest, CA"
ci37450629,36.4495,-118.009,"16km SSE of Lone Pine, CA"
ci37450637,35.9083333,-117.7436667,"15km ESE of Little Lake, CA"
ci37450645,33.9541667,-116.6466667,"11km WNW of Garnet, CA"
ci37450653,35.8648333,-117.6611667,"24km ESE of Little Lake, CA"
ci37450661,36.0255,-117.7668333,"16km NE of Little Lake, CA"
ci37450669,35.6693333,-117.5566667,"12km ENE of Ridgecrest, CA"
ci37450693,35.872,-117.6625,"23km ESE of Little Lake, CA"
ci37450701,35.8678333,-117.6771667,"22km ESE of Little Lake, CA"
ci37450789,35.8965,-117.7228333,"17km ESE of Little Lake, CA"
ci37450797,36.1095,-117.8478333,"12km NE of Coso Junction, CA"
ci37450805,32.8905,-116.3503333,"18km ENE of Pine Valley, CA"
ci37450813,33.487,-116.4145,"22km SSW of La Quinta, CA"
ci37450821,35.5973333,-117.4046667,"19km S of Trona, CA"
ci37450829,33.662,-116.7645,"10km SSW of Idyllwild, CA"
ci37450837,34.3091667,-116.8578333,"6km NNW of Big Bear City, CA"
ci37450845,33.7013333,-116.793,"8km WSW of Idyllwild, CA"
ci37450853,33.4871667,-116.4425,"23km ESE of Anza, CA"
ci37450861,35.791,-117.6141667,"19km W of Searles Valley, CA"
ci37450869,35.5423333,-117.3551667,"25km S of Trona, CA"
ci37450877,36.5031667,-117.901,"18km ESE of Lone Pine, CA"
ci37450885,33.408,-116.3505,"17km N of Borrego Springs, CA"
ci37450941,36.4396667,-117.9975,"18km N of Olancha, CA"
ci38591218,33.6021667,-116.8058333,"13km WNW of Anza, CA"
ci38591234,35.6586667,-117.4845,"14km SSW of Searles Valley, CA"
ci38591250,35.6681667,-117.486,"13km SW of Searles Valley, CA"
ci38591258,35.8715,-117.7245,"18km ESE of Little Lake, CA"
ci38591274,35.7701667,-117.579,"16km W of Searles Valley, CA"
ci38591282,36.1068333,-117.8275,"13km ENE of Coso Junction, CA"
ci38591298,35.6525,-117.454,"14km SSW of Searles Valley, CA"
ci38591322,34.8545,-118.7866667,"7km ENE of Lebec, CA"
ci38591330,35.8773333,-117.7055,"19km ESE of Little Lake, CA"
ci38591362,35.9618333,-117.502,"23km NNW of Searles Valley, CA"
ci38591370,35.67,-117.522,"15km ENE of Ridgecrest, CA"
ci38591386,35.8766667,-117.6913333,"20km ESE of Little Lake, CA"
ci38591394,35.8905,-117.7231667,"17km ESE of Little Lake, CA"
ci38591410,35.8756667,-117.6935,"20km ESE of Little Lake, CA"
ci38591434,35.8753333,-117.6923333,"20km ESE of Little Lake, CA"
ci38591442,35.8733333,-117.685,"21km ESE of Little Lake, CA"
ci38591458,33.9415,-117.047,"5km S of Calimesa, CA"
ci38591466,35.8718333,-117.6828333,"21km ESE of Little Lake, CA"
ci38591482,35.8755,-117.6816667,"21km ESE of Little Lake, CA"
ci38591546,35.8921667,-117.7208333,"18km ESE of Little Lake, CA"
ci38591554,35.8753333,-117.6888333,"21km ESE of Little Lake, CA"
ci38591570,35.8763333,-117.691,"21km ESE of Little Lake, CA"
ci38591602,35.0468333,-118.3175,"13km W of Mojave, CA"
ci38591610,35.8755,-117.6906667,"21km ESE of Little Lake, CA"
ci38591642,34.0508333,-117.2673333,"1km WNW of Loma Linda, CA"
ci38591650,35.5235,-116.3131667,"36km NW of Baker, CA"
ci38591658,36.2745,-116.8308333,"20km S of Furnace Creek, CA"
ci38591666,35.8665,-117.7025,"20km ESE of Little Lake, CA"
ci38591690,35.9751667,-117.5081667,"25km NNW of Searles Valley, CA"
ci38591714,35.0013333,-118.1936667,"6km SSW of Mojave, CA"
ci38591794,35.8766667,-117.6906667,"21km ESE of Little Lake, CA"
ci38591802,33.6491661,-116.711998,"10km S of Idyllwild, CA"
ci38591826,33.1988333,-116.6038333,"10km SSE of Warner Springs, CA"
ci38591842,35.8765,-117.6901667,"21km ESE of Little Lake, CA"
ci38591850,36.4903333,-118.0231667,"12km SSE of Lone Pine, CA"
ci38591866,35.9448333,-117.7208333,"17km E of Little Lake, CA"
ci38591922,35.6691667,-117.4395,"11km SSW of Searles Valley, CA"
ci38591986,35.7455,-117.5585,"14km W of Searles Valley, CA"
ci38592042,36.0945,-117.8681667,"9km NE of Coso Junction, CA"
ci38592050,35.9151667,-117.7096667,"18km E of Little Lake, CA"
ci38592066,35.8975,-117.6918333,"20km ESE of Little Lake, CA"
ci38592074,33.2206667,-117.1843333,"6km ENE of Vista, CA"
ci38592082,35.9141667,-117.7103333,"18km E of Little Lake, CA"
ci38592106,34.3056667,-116.8651667,"5km NNW of Big Bear City, CA"
ci38592114,33.0221672,-116.0091629,"18km SE of Ocotillo Wells, CA"
ci38592122,33.2346667,-116.7711667,"1km SW of Lake Henshaw, CA"
ci38592146,35.8681667,-117.6976667,"20km ESE of Little Lake, CA"
ci38592154,35.8698333,-117.7005,"20km ESE of Little Lake, CA"
ci38592162,35.6181667,-117.4588333,"17km SSW of Searles Valley, CA"
ci38592186,36.3936667,-118.0621667,"14km NNW of Olancha, CA"
ci38592210,35.7828333,-117.5893333,"17km W of Searles Valley, CA"
ci38592218,32.852,-116.4281667,"10km ENE of Pine Valley, CA"
ci38592226,35.6348333,-117.4113333,"15km SSW of Trona, CA"
ci38592234,35.6661667,-117.4706667,"13km SSW of Searles Valley, CA"
ci38592242,33.2236667,-116.0561667,"11km NE of Ocotillo Wells, CA"
ci38592258,33.1643333,-115.9911667,"13km E of Ocotillo Wells, CA"
ci38592266,33.4726667,-116.9266667,"7km WNW of Aguanga, CA"
ci38592274,35.874,-117.6971667,"20km ESE of Little Lake, CA"
ci38592282,34.0558333,-117.1768333,"0km E of Redlands, CA"
ci38592306,35.9168333,-117.7056667,"18km E of Little Lake, CA"
ci38592330,33.1546667,-115.9826667,"14km E of Ocotillo Wells, CA"
ci38592338,33.1536667,-115.9808333,"14km E of Ocotillo Wells, CA"
ci38592354,35.6631667,-117.3745,"11km S of Trona, CA"
ci38592362,36.1266667,-117.8671667,"12km NE of Coso Junction, CA"
ci38592370,33.8041667,-117.7826667,"3km ESE of Villa Park, CA"
ci38592378,33.4105,-116.3765,"17km N of Borrego Springs, CA"
ci38592386,35.7895,-117.586,"17km W of Searles Valley, CA"
ci38592394,33.4731667,-116.4478333,"23km ESE of Anza, CA"
ci38592402,35.6813333,-117.5205,"14km SW of Searles Valley, CA"
ci38592458,35.7443333,-117.574,"16km W of Searles Valley, CA"
ci38592466,36.4465,-117.9895,"17km SSE of Lone Pine, CA"
ci38592474,33.5816667,-116.8041667,"12km WNW of Anza, CA"
ci38592482,33.6013333,-116.8061667,"13km WNW of Anza, CA"
ci38592498,33.7508333,-116.1233333,"9km NNE of Coachella, CA"
ci38592522,33.7135,-116.8518333,"5km SE of Valle Vista, CA"
ci38592538,35.893,-117.6836667,"21km ESE of Little Lake, CA"
ci38592634,33.9903333,-116.9846667,"6km E of Calimesa, CA"
ci38592658,33.7288333,-116.7708333,"5km WSW of Idyllwild, CA"
ci38592666,35.1066667,-119.6558333,"19km WSW of Taft, CA"
ci38592674,33.966,-117.1526667,"8km ENE of Moreno Valley, CA"
ci38592690,36.0458333,-117.397,"31km N of Searles Valley, CA"
ci38592698,36.4963333,-118.0191667,"11km SSE of Lone Pine, CA"
ci38592706,35.8535,-117.6951667,"21km ESE of Little Lake, CA"
ci38592714,36.0473333,-117.3943333,"31km N of Searles Valley, CA"
ci38592722,36.1038333,-117.8646667,"10km NE of Coso Junction, CA"
ci38592730,33.9631667,-117.1436667,"9km WSW of Calimesa, CA"
ci38592738,35.8691667,-117.6943333,"20km ESE of Little Lake, CA"
ci38592746,36.5628333,-117.8335,"21km E of Lone Pine, CA"
ci38592754,33.4816667,-116.7963333,"8km NE of Aguanga, CA"
ci38592762,35.7898333,-117.6113333,"19km W of Searles Valley, CA"
ci38592786,33.0516667,-115.575,"5km ENE of Westmorland, CA"
ci38592794,35.9596667,-117.6696667,"22km E of Little Lake, CA"
ci38592802,35.9661667,-117.6753333,"21km E of Little Lake, CA"
ci38592810,34.1191667,-117.4718333,"3km NNW of Fontana, CA"
ci38592818,33.107,-116.6446667,"5km NW of Julian, CA"
ci38592850,33.734,-116.8415,"5km ESE of Valle Vista, CA"
ci38592858,33.721,-116.8403333,"6km ESE of Valle Vista, CA"
ci38592914,36.4488333,-117.9701667,"18km SSE of Lone Pine, CA"
ci38592938,36.4523333,-118.0048333,"16km SSE of Lone Pine, CA"
ci38592954,35.6748333,-117.524,"15km SW of Searles Valley, CA"
ci38592986,36.4685,-117.9675,"16km SE of Lone Pine, CA"
ci38592994,36.1145,-117.8436667,"12km NE of Coso Junction, CA"
ci38593002,35.8596667,-117.6926667,"21km ESE of Little Lake, CA"
ci38593026,35.7418333,-117.5443333,"13km WSW of Searles Valley, CA"
ci38593042,33.4791667,-116.7985,"7km ENE of Aguanga, CA"
ci38593058,36.465,-117.9206667,"19km SE of Lone Pine, CA"
ci38593098,36.1103333,-117.85,"11km NE of Coso Junction, CA"
ci38593130,36.0525,-117.8483333,"9km E of Coso Junction, CA"
ci38593138,36.0715,-117.6413333,"28km E of Coso Junction, CA"
ci38593146,33.4876667,-116.4403333,"23km ESE of Anza, CA"
ci38593186,33.4818333,-116.7988333,"8km NE of Aguanga, CA"
ci38593194,35.9546667,-117.672,"21km E of Little Lake, CA"
ci38593210,35.8706667,-117.662,"23km ESE of Little Lake, CA"
ci38593234,35.6756667,-117.5161667,"14km SW of Searles Valley, CA"
ci38593250,33.2436667,-115.687,"13km SSE of Bombay Beach, CA"
ci38593274,36.4481667,-117.9728333,"18km SSE of Lone Pine, CA"
ci38593282,36.1135,-117.8481667,"12km NE of Coso Junction, CA"
ci38593338,34.3383333,-116.8861667,"9km NNW of Big Bear City, CA"
ci38593346,35.9596667,-117.3768333,"22km N of Searles Valley, CA"
ci38593362,33.596,-116.8086667,"13km WNW of Anza, CA"
ci38593378,32.5826667,-115.2931667,"6km ENE of Puebla, B.C., MX"
ci38593410,33.8396667,-117.4951667,"5km SSE of Home Gardens, CA"
ci38593426,35.9011667,-117.7488333,"15km ESE of Little Lake, CA"
ci38593434,33.6785,-116.7231667,"7km S of Idyllwild, CA"
ci38593442,33.506,-116.5246667,"15km ESE of Anza, CA"
ci38593450,33.5156667,-116.5143333,"15km ESE of Anza, CA"
ci38593458,34.0513333,-118.8036667,"5km N of Malibu, CA"
ci38593466,33.5838333,-116.8101667,"13km WNW of Anza, CA"
ci38593482,36.0511667,-117.8456667,"9km E of Coso Junction, CA"
ci38593498,35.8471667,-117.6836667,"22km ESE of Little Lake, CA"
ci38593506,33.4818333,-116.7973333,"8km NE of Aguanga, CA"
ci38593514,36.0788333,-117.8245,"12km ENE of Coso Junction, CA"
ci38593538,32.8435,-115.4801667,"8km E of Imperial, CA"
ci38593586,33.5928333,-116.804,"13km WNW of Anza, CA"
ci38593594,33.5175,-116.5125,"16km ESE of Anza, CA"
ci38593618,34.2633333,-118.7211667,"2km ESE of Simi Valley, CA"
ci38593666,34.997,-118.2015,"7km SSW of Mojave, CA"
ci38593690,33.3403333,-117.1441667,"7km WSW of Pala, CA"
ci38593706,35.7068333,-117.4888333,"10km SW of Searles Valley, CA"
ci38593754,35.8376667,-117.6595,"24km N of Ridgecrest, CA"
ci38593818,36.0148333,-117.8016667,"13km NE of Little Lake, CA"
ci38593826,36.0143333,-117.8005,"13km NE of Little Lake, CA"
ci38593938,35.1715,-120.1106667,"22km SSW of Simmler, CA"
ci38593954,36.061,-117.5055,"34km NNW of Searles Valley, CA"
ci38593978,35.9326667,-117.6998333,"19km E of Little Lake, CA"
ci38593986,34.1036667,-118.3231667,"1km NNE of Hollywood, CA"
ci38594010,35.8906667,-117.661,"23km ESE of Little Lake, CA"
ci38594026,33.4791667,-116.4665,"21km ESE of Anza, CA"
ci38594082,35.0935,-116.9671667,"22km NNE of Barstow, CA"
ci38594106,36.0498333,-117.852,"9km E of Coso Junction, CA"
ci38594154,35.859,-117.698,"21km ESE of Little Lake, CA"
ci38594170,33.4996667,-116.7803333,"10km NE of Aguanga, CA"
ci38594178,33.5628333,-116.6458333,"3km ENE of Anza, CA"
ci38594218,33.379,-116.3708333,"14km N of Borrego Springs, CA"
ci38594242,33.3238333,-116.4036667,"8km NNW of Borrego Springs, CA"
ci38594250,33.3243333,-116.3993333,"8km NNW of Borrego Springs, CA"
ci38594290,35.794,-117.6056667,"18km W of Searles Valley, CA"
ci38594346,35.694,-117.5153333,"13km SW of Searles Valley, CA"
ci38594370,33.3268333,-116.4,"8km NNW of Borrego Springs, CA"
ci38594394,34.1693333,-118.2835,"3km ESE of Burbank, CA"
ci38594402,35.6821667,-117.5496667,"13km ENE of Ridgecrest, CA"
ci38594410,33.7178333,-116.8463333,"6km SE of Valle Vista, CA"
ci38594538,33.3761667,-116.4131667,"14km NNW of Borrego Springs, CA"
ci38594546,33.3798333,-116.4073333,"14km NNW of Borrego Springs, CA"
ci38594554,33.255,-116.2435,"12km E of Borrego Springs, CA"
ci38594562,35.8928333,-117.7165,"18km ESE of Little Lake, CA"
ci38594570,36.0503333,-117.8475,"9km E of Coso Junction, CA"
ci38594578,34.8476667,-118.9691667,"4km NW of Frazier Park, CA"
ci38594594,34.8503333,-118.9725,"4km NW of Frazier Park, CA"
ci38594602,36.0683333,-117.8625,"8km ENE of Coso Junction, CA"
ci38594610,35.7326667,-117.5605,"15km WSW of Searles Valley, CA"
ci38594618,35.8966667,-117.71,"18km ESE of Little Lake, CA"
ci38594634,35.8996667,-117.7218333,"17km ESE of Little Lake, CA"
ci38594642,35.8953333,-117.7113333,"18km ESE of Little Lake, CA"
ci38594650,33.3813333,-116.3855,"14km N of Borrego Springs, CA"
ci38594658,35.76,-117.5648333,"14km W of Searles Valley, CA"
ci38594666,35.6706667,-117.532,"14km ENE of Ridgecrest, CA"
ci38594674,35.8963333,-117.7406667,"16km ESE of Little Lake, CA"
ci38594682,33.3791667,-116.4076667,"14km NNW of Borrego Springs, CA"
ci38594690,35.5363333,-117.356,"25km S of Trona, CA"
ci38594706,33.1881667,-115.6088333,"10km SW of Niland, CA"
ci38594714,33.1843333,-115.6081667,"10km SW of Niland, CA"
ci38594722,36.0236667,-117.7706667,"16km NE of Little Lake, CA"
ci38594730,33.502,-116.5183333,"16km ESE of Anza, CA"
ci38594746,35.8636667,-117.6933333,"21km ESE of Little Lake, CA"
ci38594754,33.1868333,-115.6075,"10km SW of Niland, CA"
ci38594762,36.0231667,-117.7698333,"16km NE of Little Lake, CA"
ci38594778,34.1138333,-117.3423333,"3km ENE of Rialto, CA"
ci38594786,35.823,-117.6193333,"20km WNW of Searles Valley, CA"
ci38594794,35.8886667,-117.6808333,"21km ESE of Little Lake, CA"
ci38594802,33.6663333,-116.7093333,"8km S of Idyllwild, CA"
ci38594810,36.0508333,-117.8493333,"9km E of Coso Junction, CA"
ci38594818,35.918,-117.68,"20km E of Little Lake, CA"
ci38594826,34.0278333,-117.5096667,"3km NW of Glen Avon, CA"
ci38594834,36.4531667,-117.9806667,"17km SSE of Lone Pine, CA"
ci38594850,33.227,-116.7391667,"3km SE of Lake Henshaw, CA"
ci38594858,35.876,-117.6943333,"20km ESE of Little Lake, CA"
ci38594890,33.1861667,-116.4145,"9km SSW of Borrego Springs, CA"
ci38594914,33.326,-116.4056667,"8km NNW of Borrego Springs, CA"
ci38594938,33.4623333,-116.644,"11km SSE of Anza, CA"
ci38594946,35.5396667,-117.4333333,"24km ESE of Ridgecrest, CA"
ci38594970,35.8365,-117.6431667,"23km WNW of Searles Valley, CA"
ci38595018,34.2041667,-117.6623333,"12km NW of Rancho Cucamonga, CA"
ci38595042,35.9635,-117.3738333,"22km N of Searles Valley, CA"
ci38595098,33.9691667,-118.3541667,"2km NNW of Inglewood, CA"
ci38595130,33.3401667,-116.804,"6km ESE of Palomar Observatory, CA"
ci38595138,33.1503333,-116.4876667,"13km NE of Julian, CA"
ci38595154,34.56,-118.8216667,"16km N of Piru, CA"
ci38595162,35.895,-117.662,"22km ESE of Little Lake, CA"
ci38595194,35.8798333,-117.6966667,"20km ESE of Little Lake, CA"
ci38595226,34.2038333,-117.6721667,"12km N of Upland, CA"
ci38595242,35.7713333,-117.5761667,"16km W of Searles Valley, CA"
ci38595282,33.9945,-116.3798333,"12km ENE of Desert Hot Springs, CA"
ci38595298,35.7186667,-117.5666667,"15km NE of Ridgecrest, CA"
ci38595362,36.4591667,-117.9653333,"17km SSE of Lone Pine, CA"
ci38595418,33.3261667,-116.4036667,"8km NNW of Borrego Springs, CA"
ci38595458,33.586,-116.8018333,"12km WNW of Anza, CA"
ci38595490,36.0488333,-117.8075,"13km E of Coso Junction, CA"
ci38595506,33.4976667,-116.7908333,"9km NE of Aguanga, CA"
ci38595546,34.9941667,-118.1823333,"6km S of Mojave, CA"
ci38595562,35.9221667,-117.752,"14km E of Little Lake, CA"
ci38595570,36.443,-117.9955,"17km SSE of Lone Pine, CA"
ci38595602,33.8421667,-117.4911667,"5km SE of Home Gardens, CA"
ci38595626,35.6275,-117.4703333,"17km SSW of Searles Valley, CA"
ci38595634,35.7928333,-117.6095,"19km W of Searles Valley, CA"
ci38595682,33.4828333,-116.4416667,"23km ESE of Anza, CA"
ci38595690,33.4805,-116.4466667,"23km ESE of Anza, CA"
ci38595746,36.479,-117.9691667,"15km SE of Lone Pine, CA"
ci38595754,34.437,-117.6675,"2km WNW of Pinon Hills, CA"
ci38595778,33.8706667,-117.4945,"3km ESE of Home Gardens, CA"
ci38595794,36.051,-117.8478333,"9km E of Coso Junction, CA"
ci38595898,35.8201667,-117.6361667,"22km WNW of Searles Valley, CA"
ci38595946,32.9066667,-116.266,"26km ENE of Pine Valley, CA"
ci38595954,35.7921667,-117.6163333,"19km W of Searles Valley, CA"
ci38595970,35.793,-117.6205,"20km W of Searles Valley, CA"
ci38595978,35.7018333,-117.5811667,"12km NE of Ridgecrest, CA"
ci38595986,35.703,-117.5841667,"12km NE of Ridgecrest, CA"
ci38596010,34.3633333,-117.6223333,"1km ENE of Wrightwood, CA"
ci38596090,35.9113333,-117.4555,"17km NNW of Searles Valley, CA"
ci38596178,33.493,-116.4925,"18km ESE of Anza, CA"
ci38596194,33.5486667,-116.9421667,"14km NNW of Aguanga, CA"
ci38596210,35.6186667,-117.4231667,"17km S of Searles Valley, CA"
ci38596234,33.5005,-116.7873333,"10km NE of Aguanga, CA"
ci38596250,35.7793333,-117.5496667,"13km W of Searles Valley, CA"
ci38596258,36.4508333,-117.9843333,"17km SSE of Lone Pine, CA"
ci38596282,35.9276667,-117.6966667,"19km E of Little Lake, CA"
ci38596290,36.052,-117.8443333,"9km E of Coso Junction, CA"
ci38596338,35.6713333,-117.5153333,"15km SW of Searles Valley, CA"
ci38596346,36.4303333,-117.9831667,"17km N of Olancha, CA"
ci38596370,33.512,-116.5168333,"15km ESE of Anza, CA"
ci38596378,33.4836667,-116.7931667,"8km NE of Aguanga, CA"
ci38596394,34.0806667,-118.1796667,"5km SSE of Highland Park, CA"
ci38596410,35.7955,-117.6231667,"20km NNE of Ridgecrest, CA"
ci38596418,35.8671667,-117.6983333,"20km ESE of Little Lake, CA"
ci38596434,36.4345,-117.9875,"17km N of Olancha, CA"
ci38596442,36.4358333,-117.9846667,"17km N of Olancha, CA"
ci38596450,35.9215,-117.7291667,"16km E of Little Lake, CA"
ci38596458,35.682,-117.4613333,"11km SSW of Searles Valley, CA"
ci38596466,33.9641667,-116.8561667,"5km NNE of Banning, CA"
ci38596474,34.1403333,-118.0601667,"2km W of Arcadia, CA"
ci38596482,35.6926667,-117.5081667,"13km SW of Searles Valley, CA"
ci38596490,34.3273333,-116.9213333,"9km N of Big Bear Lake, CA"
ci38596498,33.5,-116.4938333,"18km ESE of Anza, CA"
ci38596506,34.9711667,-119.4896667,"13km SW of Maricopa, CA"
ci38596514,35.6143333,-117.4015,"17km S of Trona, CA"
ci38596522,33.2225,-116.7413333,"3km SE of Lake Henshaw, CA"
ci38596530,35.6653333,-117.481,"13km SSW of Searles Valley, CA"
ci38596538,33.4848333,-116.8005,"8km NE of Aguanga, CA"
ci38596546,33.9113333,-116.2035,"20km ENE of Thousand Palms, CA"
ci38596570,35.7923333,-117.6181667,"20km W of Searles Valley, CA"
ci38596578,33.6071667,-116.8023333,"13km WNW of Anza, CA"
ci38596586,34.3066667,-116.4513333,"22km N of Yucca Valley, CA"
ci38596594,33.5001667,-116.4976667,"17km ESE of Anza, CA"
ci38596602,34.3065,-116.4463333,"21km N of Yucca Valley, CA"
ci38596618,33.408,-116.3478333,"17km N of Borrego Springs, CA"
ci38596642,35.794,-117.624,"20km NNE of Ridgecrest, CA"
ci38596706,33.4111667,-116.3503333,"17km N of Borrego Springs, CA"
ci38596714,33.5848333,-116.8138333,"13km WNW of Anza, CA"
ci38596722,35.698,-117.5145,"13km SW of Searles Valley, CA"
ci38596730,33.5983333,-116.8053333,"13km WNW of Anza, CA"
ci38596762,33.5998333,-116.8083333,"13km WNW of Anza, CA"
ci38596802,33.5036667,-116.5013333,"17km ESE of Anza, CA"
ci38596810,36.051,-117.844,"9km E of Coso Junction, CA"
ci38596818,33.5953333,-116.8066667,"13km WNW of Anza, CA"
ci38596898,35.6438333,-117.4236667,"14km S of Searles Valley, CA"
ci38596922,35.6321667,-117.4155,"15km SSW of Trona, CA"
ci38596930,35.6268333,-117.4131667,"16km SSW of Trona, CA"
ci38596938,35.777,-117.6163333,"18km NNE of Ridgecrest, CA"
ci38597018,36.0925,-117.8795,"8km NE of Coso Junction, CA"
ci38597058,33.903,-116.195,"20km ENE of Thousand Palms, CA"
ci38597066,36.049,-117.8468333,"9km E of Coso Junction, CA"
ci38597090,33.2333333,-116.7321667,"3km ESE of Lake Henshaw, CA"
ci38597106,35.8768333,-117.694,"20km ESE of Little Lake, CA"
ci38597154,35.751,-117.5741667,"16km W of Searles Valley, CA"
ci38597178,36.0815,-117.867,"8km ENE of Coso Junction, CA"
ci38597186,36.4351667,-117.9491667,"18km NNE of Olancha, CA"
ci38597194,33.58,-116.8053333,"12km WNW of Anza, CA"
ci38597202,33.6335,-116.7451667,"11km NW of Anza, CA"
ci38597210,33.5773333,-116.8088333,"13km W of Anza, CA"
ci38597242,33.5825,-116.8038333,"12km WNW of Anza, CA"
ci38597258,33.5865,-116.8018333,"12km WNW of Anza, CA"
ci38597266,33.7056667,-116.7035,"4km SSE of Idyllwild, CA"
ci38597282,33.3583333,-116.3293333,"12km NNE of Borrego Springs, CA"
ci38597298,35.7796667,-117.6023333,"18km W of Searles Valley, CA"
ci38597394,33.9083333,-116.1973333,"20km ENE of Thousand Palms, CA"
ci38597402,36.4841667,-117.9316667,"17km SE of Lone Pine, CA"
ci38597458,33.6035,-116.8033333,"13km WNW of Anza, CA"
ci38597466,35.6888333,-117.5075,"13km SW of Searles Valley, CA"
ci38597506,33.592,-116.8203333,"14km WNW of Anza, CA"
ci38597570,35.9081667,-117.7445,"15km ESE of Little Lake, CA"
ci38597586,34.3843333,-117.651,"3km NNW of Wrightwood, CA"
ci38597602,33.1566667,-115.6463333,"13km WNW of Calipatria, CA"
ci38597618,35.6403333,-117.4196667,"14km S of Searles Valley, CA"
ci38597634,33.4568333,-116.5611667,"15km SE of Anza, CA"
ci38597642,33.5086667,-116.8005,"10km NE of Aguanga, CA"
ci38597682,35.8811667,-117.6851667,"21km ESE of Little Lake, CA"
ci38597690,36.0246667,-117.7708333,"16km NE of Little Lake, CA"
ci38597698,33.1555,-115.6356667,"12km WNW of Calipatria, CA"
ci38597706,35.7731667,-117.588,"17km W of Searles Valley, CA"
ci38597730,33.2511667,-116.244,"12km E of Borrego Springs, CA"
ci38597738,36.0666667,-117.6378333,"28km E of Coso Junction, CA"
ci38597746,33.2591667,-116.2443333,"12km E of Borrego Springs, CA"
ci38597762,34.2713333,-118.458,"2km SW of San Fernando, CA"
ci38597770,33.4935,-116.7933333,"9km NE of Aguanga, CA"
ci38597778,33.148,-116.4971667,"12km NE of Julian, CA"
ci38597786,34.268,-118.4613333,"3km SW of San Fernando, CA"
ci38597802,33.014,-116.015,"18km SE of Ocotillo Wells, CA"
ci38597810,33.5936667,-116.7956667,"12km WNW of Anza, CA"
ci38597818,32.4746667,-115.5718333,"12km S of Progreso, B.C., MX"
ci38597834,35.717,-117.5351667,"13km WSW of Searles Valley, CA"
ci38597842,33.4965,-116.791,"9km NE of Aguanga, CA"
ci38597850,35.7985,-117.62,"20km W of Searles Valley, CA"
ci38597866,34.0305,-117.2265,"4km ESE of Loma Linda, CA"
ci38597882,35.607,-117.4393333,"18km S of Searles Valley, CA"
ci38597890,33.4965,-116.7898333,"9km NE of Aguanga, CA"
ci38597898,33.6988333,-116.7031667,"5km SSE of Idyllwild, CA"
ci38597906,33.717,-116.823,"7km ESE of Valle Vista, CA"
ci38597914,33.3396667,-116.2483333,"15km NE of Borrego Springs, CA"
ci38597922,33.5138333,-116.5148333,"15km ESE of Anza, CA"
ci38597930,33.503,-116.7871667,"10km NE of Aguanga, CA"
ci38597946,32.706,-115.7443333,"20km WSW of El Centro, CA"
ci38597954,35.6926667,-117.4773333,"11km SW of Searles Valley, CA"
ci38597962,33.1605,-116.5241667,"12km NE of Julian, CA"
ci38597970,36.0508333,-117.8581667,"8km E of Coso Junction, CA"
ci38597986,33.9078333,-116.201,"20km ENE of Thousand Palms, CA"
ci38597994,33.6858333,-116.7276667,"6km S of Idyllwild, CA"
ci38598002,33.554,-115.8831667,"6km ENE of North Shore, CA"
ci38598018,33.5871667,-116.8015,"12km WNW of Anza, CA"
ci38598034,33.183,-115.9933333,"13km SSW of Salton City, CA"
ci38598042,36.3753333,-117.976,"11km NNE of Olancha, CA"
ci38598050,33.4828333,-116.7938333,"8km NE of Aguanga, CA"
ci38598058,35.6423333,-117.5425,"12km E of Ridgecrest, CA"
ci38598066,35.6133333,-117.3908333,"17km S of Trona, CA"
ci38598074,33.1693333,-115.9893333,"14km ENE of Ocotillo Wells, CA"
ci38598082,35.1981667,-119.458,"6km N of Taft, CA"
ci38598090,35.9181667,-117.68,"20km E of Little Lake, CA"
ci38598098,35.8131667,-117.5985,"18km WNW of Searles Valley, CA"
ci38598106,36.2116667,-117.8891667,"13km SE of Olancha, CA"
ci38598114,36.4511667,-117.9853333,"17km SSE of Lone Pine, CA"
ci38598122,35.7326667,-117.6088333,"14km NNE of Ridgecrest, CA"
ci38598130,36.3691667,-118.0155,"10km N of Olancha, CA"
ci38598138,35.8923333,-117.7195,"18km ESE of Little Lake, CA"
ci38598154,33.3031667,-116.1611667,"18km N of Ocotillo Wells, CA"
ci38598162,33.3853333,-116.415,"15km NNW of Borrego Springs, CA"
ci38598170,36.0013333,-118.4033333,"28km N of Kernville, CA"
ci38598178,35.6361667,-117.5751667,"9km E of Ridgecrest, CA"
ci38598194,33.4983333,-116.792,"9km NE of Aguanga, CA"
ci38598210,35.795,-117.6293333,"20km NNE of Ridgecrest, CA"
ci38598218,33.6951667,-117.4086667,"8km WNW of Lake Elsinore, CA"
ci38598226,35.8771667,-117.6823333,"21km ESE of Little Lake, CA"
ci38598258,33.5901667,-116.804,"13km WNW of Anza, CA"
ci38598266,33.1466667,-116.6228333,"8km NNW of Julian, CA"
ci38598282,36.521,-117.8791667,"19km ESE of Lone Pine, CA"
ci38598306,33.8713333,-116.9513333,"7km SSE of Beaumont, CA"
ci38598378,33.7963333,-116.9111667,"5km ENE of San Jacinto, CA"
ci38598418,33.7823333,-116.9545,"0km ESE of San Jacinto, CA"
ci38598458,35.6901667,-117.5115,"13km SW of Searles Valley, CA"
ci38598466,33.3365,-116.196,"17km SSW of Oasis, CA"
ci38598474,33.5923333,-116.8038333,"13km WNW of Anza, CA"
ci38598490,33.4135,-116.3433333,"18km N of Borrego Springs, CA"
ci38598498,33.5238333,-116.7355,"7km WSW of Anza, CA"
ci38598506,35.647,-117.4298333,"14km S of Searles Valley, CA"
ci38598522,35.9103333,-117.686,"20km E of Little Lake, CA"
ci38598530,36.026,-117.5106667,"30km NNW of Searles Valley, CA"
ci38598570,35.6763333,-117.5118333,"14km SW of Searles Valley, CA"
ci38598578,33.5071667,-116.7621667,"10km WSW of Anza, CA"
ci38598586,35.0295,-117.6735,"4km NNW of Boron, CA"
ci38598594,35.8741667,-117.6886667,"21km ESE of Little Lake, CA"
ci38598602,35.9325,-117.8238333,"8km E of Little Lake, CA"
ci38598650,33.2265,-116.7325,"3km ESE of Lake Henshaw, CA"
ci38598658,35.8891667,-117.7356667,"16km ESE of Little Lake, CA"
ci38598666,35.8875,-117.7336667,"16km ESE of Little Lake, CA"
ci38598674,35.8631667,-117.6726667,"23km ESE of Little Lake, CA"
ci38598682,34.0638333,-116.9061667,"13km ENE of Yucaipa, CA"
ci38598690,33.4996667,-116.7898333,"9km NE of Aguanga, CA"
ci38598698,33.514,-116.7613333,"9km WSW of Anza, CA"
ci38598706,35.7691667,-117.5786667,"16km W of Searles Valley, CA"
ci38598714,33.5083333,-116.7815,"11km NE of Aguanga, CA"
ci38598722,33.4833333,-116.4686667,"21km ESE of Anza, CA"
ci38598730,35.9458333,-117.6658333,"22km E of Little Lake, CA"
ci38598738,35.687,-117.5,"12km SW of Searles Valley, CA"
ci38598746,35.7696667,-117.5765,"16km W of Searles Valley, CA"
ci38598762,33.4903333,-116.7951667,"8km NE of Aguanga, CA"
ci38598770,33.1861667,-116.3061667,"10km SE of Borrego Springs, CA"
ci38598786,33.5888333,-116.8045,"13km WNW of Anza, CA"
ci38598794,35.6416667,-117.4098333,"14km SSW of Trona, CA"
ci38598810,33.8766667,-116.1975,"17km N of Indio, CA"
ci38598818,33.8663333,-116.811,"6km SSW of Cabazon, CA"
ci38598826,35.9803333,-117.9118333,"5km N of Little Lake, CA"
ci38598834,33.2158333,-116.7438333,"3km SSE of Lake Henshaw, CA"
ci38598850,35.6493333,-117.5368333,"13km ENE of Ridgecrest, CA"
ci38598858,34.0383333,-117.1183333,"4km SSE of Mentone, CA"
ci38598866,34.4543333,-119.3058333,"6km W of Ojai, CA"
ci38598874,34.0548333,-117.2346667,"3km ENE of Loma Linda, CA"
ci38598890,35.6515,-117.5383333,"13km ENE of Ridgecrest, CA"
ci38598898,33.6640015,-116.768837,"10km SSW of Idyllwild, CA"
ci38598906,33.5005,-116.7935,"9km NE of Aguanga, CA"
ci38598938,35.7935,-117.6215,"20km NNE of Ridgecrest, CA"
ci38598946,35.9428333,-117.6655,"22km E of Little Lake, CA"
ci38598954,35.8543333,-117.667,"23km ESE of Little Lake, CA"
ci38598962,33.4256667,-116.434,"20km NNW of Borrego Springs, CA"
ci38598970,35.7183333,-117.5446667,"14km WSW of Searles Valley, CA"
ci38598978,33.4845,-116.5825,"12km SE of Anza, CA"
ci38598986,34.4548333,-119.3086667,"6km W of Ojai, CA"
ci38598994,35.7318333,-117.476,"8km WSW of Searles Valley, CA"
ci38599002,34.12,-117.4736667,"3km NNW of Fontana, CA"
ci38599010,36.098,-117.865,"10km NE of Coso Junction, CA"
ci38599018,35.9048333,-117.4241667,"15km N of Searles Valley, CA"
ci38599042,35.874,-117.7003333,"20km ESE of Little Lake, CA"
ci38599162,35.7096667,-117.5013333,"11km SW of Searles Valley, CA"
ci38599234,33.5963333,-116.8045,"13km WNW of Anza, CA"
ci38599250,35.8441667,-117.6945,"22km ESE of Little Lake, CA"
ci38599298,33.0595,-116.0133333,"14km SE of Ocotillo Wells, CA"
ci38599378,36.4476667,-117.9718333,"18km SSE of Lone Pine, CA"
ci38599402,35.8756667,-117.691,"21km ESE of Little Lake, CA"
ci38599426,35.7576667,-117.574,"15km W of Searles Valley, CA"
ci38599458,33.3623333,-116.404,"12km NNW of Borrego Springs, CA"
ci38599522,34.1038333,-117.3035,"3km SSW of San Bernardino, CA"
ci38599570,33.5521667,-117.2195,"1km WSW of Murrieta, CA"
ci38599578,33.4908333,-116.7948333,"8km NE of Aguanga, CA"
ci38599586,35.8726667,-117.6818333,"22km ESE of Little Lake, CA"
ci38599602,33.0516667,-115.89,"25km ESE of Ocotillo Wells, CA"
ci38599610,35.809,-117.6403333,"21km N of Ridgecrest, CA"
ci38599626,36.4548333,-117.9898333,"16km SSE of Lone Pine, CA"
ci38599642,36.2036667,-117.9015,"13km SE of Olancha, CA"
ci38599674,33.4953333,-116.7905,"9km NE of Aguanga, CA"
ci38599778,33.4776667,-116.48,"20km ESE of Anza, CA"
ci38599786,33.5905,-116.8133333,"14km WNW of Anza, CA"
ci38599818,35.9796667,-117.5153333,"26km NNW of Searles Valley, CA"
ci38599834,35.8731667,-117.6961667,"20km ESE of Little Lake, CA"
ci38599850,35.5913333,-117.4165,"20km S of Trona, CA"
ci38599882,34.9318333,-119.0378333,"10km W of Grapevine, CA"
ci38599898,34.9101667,-119.032,"10km WSW of Grapevine, CA"
ci38599930,36.4538333,-117.9971667,"16km SSE of Lone Pine, CA"
ci38600010,35.7735,-117.6401667,"17km N of Ridgecrest, CA"
ci38600026,33.5956667,-116.8058333,"13km WNW of Anza, CA"
ci38600050,33.672,-116.716,"8km S of Idyllwild, CA"
ci38600058,33.6793333,-116.7113333,"7km S of Idyllwild, CA"
ci38600066,33.4941667,-116.7908333,"9km NE of Aguanga, CA"
ci38600074,33.6635,-116.7195,"8km S of Idyllwild, CA"
ci38600082,33.6641667,-116.7206667,"8km S of Idyllwild, CA"
ci38600090,33.6666667,-116.7105,"8km S of Idyllwild, CA"
ci38600098,33.6631667,-116.71,"9km S of Idyllwild, CA"
ci38600106,33.6603333,-116.715,"9km S of Idyllwild, CA"
ci38600114,36.6,-117.8193333,"22km E of Lone Pine, CA"
ci38600122,35.9148333,-117.7085,"18km E of Little Lake, CA"
ci38600138,33.4893333,-116.7953333,"8km NE of Aguanga, CA"
ci38600146,33.675,-116.7105,"7km S of Idyllwild, CA"
ci38600154,33.602,-116.8093333,"14km WNW of Anza, CA"
ci38600162,33.6556667,-116.7166667,"9km S of Idyllwild, CA"
ci38600170,33.6666679,-116.7133331,"8km S of Idyllwild, CA"
ci38600186,33.6696667,-116.7105,"8km S of Idyllwild, CA"
ci38600210,35.9543333,-117.665,"22km E of Little Lake, CA"
ci38600218,35.609,-117.4726667,"18km E of Ridgecrest, CA"
ci38600226,33.6708333,-116.7105,"8km S of Idyllwild, CA"
ci38600250,33.6725,-116.71,"8km S of Idyllwild, CA"
ci38600258,34.0265,-118.3158333,"5km NE of View Park-Windsor Hills, CA"
ci38600274,33.4716667,-116.4868333,"20km ESE of Anza, CA"
ci38600282,33.3266667,-116.4051667,"8km NNW of Borrego Springs, CA"
ci38600290,35.9215,-117.7621667,"13km E of Little Lake, CA"
ci38600298,35.9245,-117.7618333,"13km E of Little Lake, CA"
ci38600306,35.9258333,-117.7613333,"13km E of Little Lake, CA"
ci38600314,33.5805,-116.8066667,"13km WNW of Anza, CA"
ci38600322,35.9301667,-117.7561667,"14km E of Little Lake, CA"
ci38600330,35.926,-117.7575,"14km E of Little Lake, CA"
ci38600338,33.9571667,-116.7415,"6km NE of Cabazon, CA"
ci38600346,33.4785,-116.8013333,"7km NE of Aguanga, CA"
ci38600362,33.4901667,-116.5161667,"16km ESE of Anza, CA"
ci38600378,33.495,-116.7855,"9km NE of Aguanga, CA"
ci38600386,35.9005,-117.688,"20km ESE of Little Lake, CA"
ci38600394,35.8906667,-117.707,"19km ESE of Little Lake, CA"
ci38600402,36.4661667,-118.0076667,"14km SSE of Lone Pine, CA"
ci38600410,33.672,-116.7158333,"8km S of Idyllwild, CA"
ci38600418,35.861,-117.6625,"24km ESE of Little Lake, CA"
ci38600426,33.345,-116.9263333,"6km WSW of Palomar Observatory, CA"
ci38600434,33.2301667,-116.7391667,"3km ESE of Lake Henshaw, CA"
ci38600442,33.5008333,-116.7875,"10km NE of Aguanga, CA"
ci38600450,35.899,-117.7003333,"19km ESE of Little Lake, CA"
ci38600458,33.7195,-116.8185,"8km ESE of Valle Vista, CA"
ci38600466,33.9158333,-117.7958333,"3km NNE of Yorba Linda, CA"
ci38600474,32.9176667,-116.2431667,"27km SSW of Ocotillo Wells, CA"
ci38600498,33.6918333,-116.7,"6km SSE of Idyllwild, CA"
ci38600506,33.6685,-116.7103333,"8km S of Idyllwild, CA"
ci38600522,35.8,-117.6236667,"20km W of Searles Valley, CA"
ci38600530,33.1285,-115.6438333,"10km NNW of Westmorland, CA"
ci38600538,33.2286667,-117.7361667,"25km SSW of San Clemente, CA"
ci38600546,33.1363333,-115.6195,"10km W of Calipatria, CA"
ci38600562,33.1298333,-115.6263333,"10km N of Westmorland, CA"
ci38600578,33.05,-115.9146667,"23km ESE of Ocotillo Wells, CA"
ci38600586,33.2593333,-116.3945,"2km WNW of Borrego Springs, CA"
ci38600642,33.5968333,-116.7938333,"12km WNW of Anza, CA"
ci38600650,33.706,-116.7543333,"5km SW of Idyllwild, CA"
ci38600682,35.9343333,-117.321,"20km NNE of Trona, CA"
ci38600746,35.6715,-117.5125,"14km SW of Searles Valley, CA"
ci38600794,35.697,-117.5316667,"14km SW of Searles Valley, CA"
ci38600826,33.169,-116.0095,"12km ENE of Ocotillo Wells, CA"
ci38600882,35.6481667,-117.4058333,"13km S of Trona, CA"
ci38601018,35.8626667,-117.6955,"21km ESE of Little Lake, CA"
ci38601026,33.0598333,-115.893,"24km ESE of Ocotillo Wells, CA"
ci38601034,33.0616667,-115.8918333,"24km ESE of Ocotillo Wells, CA"
ci38601058,33.4883333,-116.793,"8km NE of Aguanga, CA"
ci38601066,33.477,-116.8021667,"7km ENE of Aguanga, CA"
ci38601090,33.9086667,-116.2031667,"20km ENE of Thousand Palms, CA"
ci38601106,35.6845,-117.474,"11km SW of Searles Valley, CA"
ci38601114,33.0553333,-115.8916667,"24km ESE of Ocotillo Wells, CA"
ci38601226,35.9276667,-117.6681667,"22km E of Little Lake, CA"
ci38601250,33.9645,-116.3815,"11km E of Desert Hot Springs, CA"
ci38601386,33.5568333,-116.7451667,"7km W of Anza, CA"
ci38601394,33.495,-116.5118333,"16km ESE of Anza, CA"
ci38601458,35.53,-117.3941667,"26km S of Trona, CA"
ci38601498,33.125,-115.6311667,"10km N of Westmorland, CA"
ci38601506,33.8703333,-117.4936667,"3km ESE of Home Gardens, CA"
ci38601602,35.784,-117.6091667,"19km W of Searles Valley, CA"
ci38601610,35.7875,-117.6073333,"18km W of Searles Valley, CA"
ci38601682,33.222,-116.7411667,"3km SE of Lake Henshaw, CA"
ci38601746,35.9036667,-117.6955,"19km E of Little Lake, CA"
ci38601762,35.641,-117.4123333,"14km SSW of Trona, CA"
ci38601778,33.2315,-116.7363333,"3km ESE of Lake Henshaw, CA"
ci38601794,35.0206667,-117.6621667,"3km NNW of Boron, CA"
ci38601826,33.1958333,-116.734,"6km SSE of Lake Henshaw, CA"
ci38601850,33.4785,-116.8008333,"7km ENE of Aguanga, CA"
ci38601874,34.0315,-117.0028333,"4km E of Yucaipa, CA"
ci38601930,35.815,-117.6436667,"22km N of Ridgecrest, CA"
ci38601954,34.5356667,-119.9068333,"13km NNW of Goleta, CA"
ci38601978,35.8861667,-117.6856667,"21km ESE of Little Lake, CA"
ci38601986,35.7388333,-117.5441667,"13km WSW of Searles Valley, CA"
ci38602050,32.8581667,-116.0306667,"14km NNW of Ocotillo, CA"
ci38602058,33.2228333,-116.0556667,"11km NE of Ocotillo Wells, CA"
ci38602154,33.4791667,-116.5413333,"15km SE of Anza, CA"
ci38602170,33.5143333,-116.5185,"15km ESE of Anza, CA"
ci38602186,33.1466667,-115.9833333,"14km E of Ocotillo Wells, CA"
ci38602194,32.2475,-115.2293333,"6km WNW of Alberto Oviedo Mota, B.C., MX"
ci38602202,35.6593333,-117.4553333,"13km SSW of Searles Valley, CA"
ci38602210,33.5888333,-116.8075,"13km WNW of Anza, CA"
ci38602218,33.6528333,-117.9716667,"5km SSE of Huntington Beach, CA"
ci38602226,36.1041667,-117.8621667,"10km NE of Coso Junction, CA"
ci38602234,35.6026667,-117.455,"19km SSW of Searles Valley, CA"
ci38602282,36.4471667,-117.95,"19km SE of Lone Pine, CA"
ci38602298,33.7086667,-116.7666667,"6km SW of Idyllwild, CA"
ci38602314,33.5026667,-116.7835,"10km NE of Aguanga, CA"
ci38602354,33.2228333,-116.74,"3km SE of Lake Henshaw, CA"
ci38602394,34.3628333,-116.449,"28km N of Yucca Valley, CA"
ci38602426,35.7075,-117.5081667,"12km SW of Searles Valley, CA"
hv72045002,19.21433258,-155.466507,"1 km NE of Phala, Hawaii"
hv72045012,19.22500038,-155.2449951,"24 km S of Volcano, Hawaii"
hv72045017,19.15399933,-155.2611694,"Island of Hawaii, Hawaii"
hv72045072,19.18000031,-155.465332,"2 km SSE of Phala, Hawaii"
hv72045172,19.47483253,-155.6623383,"21 km E of Honaunau-Napoopoo, Hawaii"
hv72045192,19.34566667,-155.11,"13 km SSE of Fern Forest, Hawaii"
hv72045197,19.53,-155.2145,"9 km NNE of Volcano, Hawaii"
hv72045207,19.18050003,-155.4649963,"2 km SSE of Phala, Hawaii"
hv72045277,19.40200043,-155.2711639,"5 km SW of Volcano, Hawaii"
hv72045532,19.38666725,-155.2506714,"Hawaii region, Hawaii"
hv72045537,19.222,-155.3888333,"9 km ENE of Phala, Hawaii"
hv72045772,19.41116714,-155.2756653,"5 km SW of Volcano, Hawaii"
hv72045827,19.40483284,-155.2833405,"6 km SW of Volcano, Hawaii"
hv72045912,19.39883333,-155.2778333,"6 km SW of Volcano, Hawaii"
hv72045917,19.38666667,-155.2493333,"6 km SSW of Volcano, Hawaii"
hv72046502,19.3579998,-155.130661,"11 km S of Fern Forest, Hawaii"
hv72046662,19.32550049,-155.3775024,"Hawaii region, Hawaii"
hv72046797,19.44166756,-155.6184998,"25 km E of Honaunau-Napoopoo, Hawaii"
hv72046837,19.37433243,-155.2938385,"9 km SW of Volcano, Hawaii"
hv72046867,19.2345,-155.3985,"9 km ENE of Phala, Hawaii"
hv72046872,19.22266579,-155.3916626,"9 km ENE of Phala, Hawaii"
hv72047392,19.31216621,-155.8800049,"16 km S of Honaunau-Napoopoo, Hawaii"
hv72047467,19.12400055,-155.4624939,"8 km S of Phala, Hawaii"
hv72047472,19.15066667,-155.4553333,"6 km SSE of Phala, Hawaii"
hv72047542,19.43316667,-155.6176667,"26 km E of Honaunau-Napoopoo, Hawaii"
hv72047717,19.19149971,-155.4768372,"Island of Hawaii, Hawaii"
hv72047797,19.4025,-155.2833333,"6 km SW of Volcano, Hawaii"
hv72047802,19.4005,-155.2845,"Island of Hawaii, Hawaii"
hv72047912,19.1886673,-155.4629974,"2 km SE of Phala, Hawaii"
hv72048022,19.22416687,-155.4203339,"6 km ENE of Phala, Hawaii"
hv72048047,19.19166756,-155.4611664,"2 km SE of Phala, Hawaii"
hv72048057,19.22033333,-155.3966667,"Island of Hawaii, Hawaii"
hv72048092,19.21566582,-155.4133301,"7 km ENE of Phala, Hawaii"
hv72048342,19.1685009,-155.4519958,"4 km SE of Phala, Hawaii"
hv72048372,19.19683266,-155.5011597,"2 km WSW of Phala, Hawaii"
hv72048392,19.18549919,-155.4579926,"2 km SE of Phala, Hawaii"
hv72048452,19.21899986,-155.505661,"3 km WNW of Phala, Hawaii"
hv72048477,19.23033333,-155.4198303,"6 km ENE of Phala, Hawaii"
hv72048617,19.20516586,-155.4296722,"5 km E of Phala, Hawaii"
hv72048642,19.18516731,-155.4363403,"4 km ESE of Phala, Hawaii"
hv72048657,19.15550041,-155.4564972,"5 km SSE of Phala, Hawaii"
hv72048717,19.38433333,-155.4213333,"20 km WSW of Volcano, Hawaii"
hv72048747,19.18983269,-155.4570007,"2 km ESE of Phala, Hawaii"
hv72048822,19.31533241,-155.5130005,"12 km NNW of Phala, Hawaii"
hv72048827,19.22750092,-155.4151611,"7 km ENE of Phala, Hawaii"
hv72048852,19.1566658,-155.4706726,"5 km S of Phala, Hawaii"
hv72048912,19.16883278,-155.4598389,"Hawaii region, Hawaii"
hv72049002,19.47316742,-155.5793304,"30 km E of Honaunau-Napoopoo, Hawaii"
hv72049157,19.22100067,-155.4168396,"6 km ENE of Phala, Hawaii"
hv72049272,19.47283333,-155.599,"27 km E of Honaunau-Napoopoo, Hawaii"
hv72049297,19.21133423,-155.4100037,"7 km E of Phala, Hawaii"
hv72049322,19.21949959,-155.3999939,"8 km ENE of Phala, Hawaii"
hv72049402,19.38466644,-155.2794952,"8 km SW of Volcano, Hawaii"
hv72049482,19.21466637,-155.389328,"9 km E of Phala, Hawaii"
hv72049517,19.44283295,-155.616333,"26 km E of Honaunau-Napoopoo, Hawaii"
hv72049562,19.19499969,-155.4671631,"1 km SE of Phala, Hawaii"
hv72049612,19.20983315,-155.3820038,"10 km E of Phala, Hawaii"
hv72049652,19.19133377,-155.3769989,"10 km E of Phala, Hawaii"
hv72049692,19.20433426,-155.5025024,"2 km W of Phala, Hawaii"
hv72049762,19.19666672,-155.4394989,"4 km E of Phala, Hawaii"
hv72049932,19.20216751,-155.386673,"9 km E of Phala, Hawaii"
hv72049962,19.33666667,-155.1931667,"12 km SSE of Volcano, Hawaii"
hv72049967,19.448,-155.6243333,"25 km E of Honaunau-Napoopoo, Hawaii"
hv72049972,19.40733333,-155.2796667,"6 km SW of Volcano, Hawaii"
hv72050017,19.47783279,-155.5735016,"30 km E of Honaunau-Napoopoo, Hawaii"
hv72050077,19.16016579,-155.4621735,"5 km SSE of Phala, Hawaii"
hv72050247,19.20316696,-155.4723358,"0 km E of Phala, Hawaii"
hv72050277,19.22516667,-155.4095,"7 km ENE of Phala, Hawaii"
hv72050327,19.21516609,-155.4064941,"7 km E of Phala, Hawaii"
hv72050472,19.18283272,-155.4505005,"3 km SE of Phala, Hawaii"
hv72050657,19.4985,-155.4918333,"27 km WNW of Volcano, Hawaii"
hv72050717,19.20299911,-155.4364929,"4 km E of Phala, Hawaii"
hv72050797,19.17733383,-155.4640045,"3 km SSE of Phala, Hawaii"
hv72050832,19.38566589,-155.2351685,"6 km S of Volcano, Hawaii"
hv72050837,19.21999931,-155.4273376,"5 km ENE of Phala, Hawaii"
hv72051107,19.21683311,-155.4313354,"5 km ENE of Phala, Hawaii"
hv72051127,19.22066689,-155.4243317,"6 km ENE of Phala, Hawaii"
hv72051227,19.20233345,-155.4688263,"1 km E of Phala, Hawaii"
hv72051287,19.24016762,-155.4089966,"8 km ENE of Phala, Hawaii"
hv72051612,19.47116661,-155.5896606,"28 km E of Honaunau-Napoopoo, Hawaii"
hv72051687,19.23033333,-155.4103394,"7 km ENE of Phala, Hawaii"
hv72051757,19.23883247,-155.3933258,"9 km ENE of Phala, Hawaii"
hv72051802,19.33416748,-155.1301727,"14 km S of Fern Forest, Hawaii"
hv72051872,19.21699905,-155.4081726,"7 km ENE of Phala, Hawaii"
hv72051932,19.41500092,-155.2746735,"5 km SW of Volcano, Hawaii"
hv72052097,19.40749931,-155.2926636,"7 km WSW of Volcano, Hawaii"
hv72052107,19.33383333,-155.1928333,"12 km SSE of Volcano, Hawaii"
hv72052112,19.45999908,-155.3580017,"13 km W of Volcano, Hawaii"
hv72052177,19.36833382,-155.1926727,"9 km SSE of Volcano, Hawaii"
hv72052237,19.17516708,-155.4588318,"3 km SE of Phala, Hawaii"
hv72052352,19.23966599,-155.3995056,"9 km ENE of Phala, Hawaii"
hv72052472,19.2171669,-155.3846741,"10 km E of Phala, Hawaii"
hv72052532,19.4734993,-155.6088409,"26 km E of Honaunau-Napoopoo, Hawaii"
hv72052897,19.21766663,-155.4078369,"7 km ENE of Phala, Hawaii"
hv72053112,19.19716667,-155.4693333,"1 km ESE of Phala, Hawaii"
hv72053127,19.18616676,-155.4705048,"2 km SSE of Phala, Hawaii"
hv72053132,19.49533333,-155.5818333,"30 km E of Honaunau-Napoopoo, Hawaii"
hv72053217,19.40166664,-155.2684937,"5 km SW of Volcano, Hawaii"
hv72053322,19.20583344,-155.4043274,"7 km E of Phala, Hawaii"
hv72053507,19.475,-155.5983333,"28 km E of Honaunau-Napoopoo, Hawaii"
hv72053617,19.16666603,-155.4889984,"4 km SSW of Phala, Hawaii"
hv72053642,19.20866585,-155.4078369,"Island of Hawaii, Hawaii"
hv72053662,19.50683333,-155.4675,"25 km WNW of Volcano, Hawaii"
hv72053677,19.51,-155.473,"26 km WNW of Volcano, Hawaii"
hv72053737,19.36983333,-155.0916667,"11 km SSE of Fern Forest, Hawaii"
hv72053742,19.17533302,-155.4731598,"3 km S of Phala, Hawaii"
hv72053807,19.19316673,-155.5019989,"2 km WSW of Phala, Hawaii"
hv72053857,19.22516632,-155.4255066,"6 km ENE of Phala, Hawaii"
hv72053947,19.45066643,-155.6094971,"26 km E of Honaunau-Napoopoo, Hawaii"
hv72053997,19.23016739,-155.49617,"3 km NNW of Phala, Hawaii"
hv72054057,19.16150093,-155.4816742,"4 km S of Phala, Hawaii"
hv72054062,19.33216667,-155.177002,"13 km SSE of Volcano, Hawaii"
hv72054087,19.23399925,-155.3928375,"9 km ENE of Phala, Hawaii"
hv72054112,19.22299957,-155.3936615,"9 km ENE of Phala, Hawaii"
hv72054122,19.20583344,-155.4086609,"7 km E of Phala, Hawaii"
hv72054142,19.22500038,-155.3916626,"9 km ENE of Phala, Hawaii"
hv72054147,19.2329998,-155.4001617,"8 km ENE of Phala, Hawaii"
hv72054217,19.19400024,-155.472168,"1 km SE of Phala, Hawaii"
hv72054432,19.21983337,-155.4101715,"7 km ENE of Phala, Hawaii"
hv72054482,19.352,-155.0975,"13 km SSE of Fern Forest, Hawaii"
hv72054752,19.42333412,-155.0461731,"9 km SE of Eden Roc, Hawaii"
hv72054847,19.19233322,-155.4445038,"3 km ESE of Phala, Hawaii"
hv72054852,19.34550095,-155.1488342,"13 km S of Fern Forest, Hawaii"
hv72054867,19.24083328,-155.3908386,"10 km ENE of Phala, Hawaii"
hv72055052,19.2191658,-155.3928375,"9 km E of Phala, Hawaii"
hv72055112,19.37483406,-155.2148285,"7 km SSE of Volcano, Hawaii"
hv72055247,19.24033356,-155.3834991,"10 km ENE of Phala, Hawaii"
hv72055282,19.19366646,-155.4759979,"1 km SSE of Phala, Hawaii"
hv72055437,19.06966591,-155.4185028,"16 km SSE of Phala, Hawaii"
hv72055442,19.10899925,-155.4660034,"10 km S of Phala, Hawaii"
hv72055447,19.08699989,-155.482666,"10 km ENE of Naalehu, Hawaii"
hv72055457,18.97083282,-155.4366608,"18 km SE of Naalehu, Hawaii"
hv72055482,19.20100021,-155.4323273,"4 km E of Phala, Hawaii"
mb80450389,44.1523333,-115.1763333,"20 km WSW of Stanley, Idaho"
mb80450419,44.2861667,-115.1731667,"20 km WNW of Stanley, Idaho"
mb80450439,44.2793333,-115.1713333,"19 km WNW of Stanley, Idaho"
mb80450479,44.3073333,-115.1713333,"21 km WNW of Stanley, Idaho"
mb80450524,44.5441667,-115.2326667,"43 km NNW of Stanley, Idaho"
mb80450559,44.3158333,-115.1666667,"21 km WNW of Stanley, Idaho"
mb80450619,45.0811667,-111.7578333,"27 km SSE of Virginia City, Montana"
mb80450624,44.3566667,-115.1951667,"25 km NW of Stanley, Idaho"
mb80450724,44.1345,-115.0498333,"12 km SW of Stanley, Idaho"
mb80450764,44.4751667,-115.2251667,"36 km NW of Stanley, Idaho"
mb80450774,44.1068333,-115.0558333,"15 km SW of Stanley, Idaho"
mb80450784,44.2888333,-115.1701667,"20 km WNW of Stanley, Idaho"
mb80450789,44.535,-115.2216667,"41 km NNW of Stanley, Idaho"
mb80450799,44.2846667,-114.4651667,"5 km WNW of Clayton, Idaho"
mb80450829,46.0083333,-112.4688333,"5 km E of Butte, Montana"
mb80450929,46.207,-111.3655,"6 km ENE of Toston, Montana"
mb80450949,46.2001667,-111.3276667,"9 km ENE of Toston, Montana"
mb80451029,44.8271667,-111.5405,"28 km WNW of Hebgen Lake Estates, Montana"
mb80451059,44.111,-115.0933333,"17 km SW of Stanley, Idaho"
mb80451069,44.8291667,-111.5406667,"28 km WNW of Hebgen Lake Estates, Montana"
mb80451134,45.8525,-111.3821667,"3 km W of Manhattan, Montana"
mb80451179,44.4768333,-115.2086667,"35 km NW of Stanley, Idaho"
mb80451199,44.3006667,-115.0321667,"11 km NW of Stanley, Idaho"
mb80451234,44.5346667,-115.2195,"41 km NNW of Stanley, Idaho"
mb80451254,44.6166667,-112.0841667,"29 km NNE of Spencer, Idaho"
mb80451269,44.499,-115.2265,"38 km NW of Stanley, Idaho"
mb80451299,43.709,-110.2028333,"35 km ENE of Kelly, Wyoming"
mb80451329,44.3235,-115.1018333,"17 km NW of Stanley, Idaho"
mb80451399,44.3008333,-115.0083333,"10 km NNW of Stanley, Idaho"
mb80451404,46.0125,-112.4705,"5 km E of Butte, Montana"
mb80451464,46.8555,-112.52,"16 km SE of Lincoln, Montana"
mb80451489,46.1595,-111.628,"4 km S of Radersburg, Montana"
nc71112774,39.7863333,-122.0006667,"5km NNE of Hamilton City, CA"
nc71112779,38.794,-122.7781667,"3km NW of The Geysers, CA"
nc73426691,37.434,-121.783,"8km NNE of Alum Rock, CA"
nc73426706,38.8235,-122.8108333,"7km NW of The Geysers, CA"
nc73426711,38.8231667,-122.8113333,"7km NW of The Geysers, CA"
nc73426716,37.4756667,-121.8185,"9km NE of Milpitas, CA"
nc73426736,37.5158333,-118.8521667,"16km WSW of Toms Place, CA"
nc73426741,37.5523333,-118.8545,"14km SE of Mammoth Lakes, CA"
nc73426746,38.0235,-118.8078333,"28km SE of Bodie, CA"
nc73426751,38.8148346,-122.8239975,"7km NW of The Geysers, CA"
nc73426756,38.8195,-122.824501,"8km NW of The Geysers, CA"
nc73426761,38.7908333,-122.7315,"3km NE of The Geysers, CA"
nc73426766,38.8134995,-122.8208313,"7km NW of The Geysers, CA"
nc73426771,38.0443333,-118.7361667,"30km SE of Bodie, CA"
nc73426776,37.6363333,-118.9363333,"4km E of Mammoth Lakes, CA"
nc73426786,38.8008333,-122.7741667,"3km NNW of The Geysers, CA"
nc73426791,37.5913333,-119.0136667,"6km SSW of Mammoth Lakes, CA"
nc73426796,38.8206673,-122.8134995,"7km NW of The Geysers, CA"
nc73426801,36.5815,-121.4185,"9km NNE of Gonzales, CA"
nc73426806,37.5488333,-118.8648333,"14km SE of Mammoth Lakes, CA"
nc73426816,38.7705,-122.7466667,"1km SE of The Geysers, CA"
nc73426821,38.046,-118.7366667,"30km SE of Bodie, CA"
nc73426826,38.8225,-122.795,"6km NNW of The Geysers, CA"
nc73426831,38.8356667,-122.7903366,"6km WNW of Cobb, CA"
nc73426836,38.835,-122.7893333,"6km WNW of Cobb, CA"
nc73426846,37.2925,-121.6725,"15km E of Seven Trees, CA"
nc73426856,38.7738333,-122.7185,"2km W of Anderson Springs, CA"
nc73426861,37.6478333,-119.3855,"20km ESE of Yosemite Valley, CA"
nc73426871,37.6213333,-119.3275,"26km ESE of Yosemite Valley, CA"
nc73426876,37.6265,-119.3398333,"24km ESE of Yosemite Valley, CA"
nc73426896,38.8226662,-122.8056641,"7km NW of The Geysers, CA"
nc73426901,35.9648333,-120.5121667,"10km NW of Parkfield, CA"
nc73426906,38.8146667,-122.8201667,"7km NW of The Geysers, CA"
nc73426911,38.8341675,-122.8181686,"8km NW of The Geysers, CA"
nc73426916,38.0475,-118.7488333,"29km SE of Bodie, CA"
nc73426921,40.2595,-121.1883333,"5km N of Almanor, CA"
nc73426926,38.8346667,-122.7905,"6km WNW of Cobb, CA"
nc73426931,37.4688333,-121.8203333,"9km ENE of Milpitas, CA"
nc73426936,38.8110008,-122.8248367,"7km WNW of The Geysers, CA"
nc73426941,38.8358333,-122.8078333,"8km WNW of Cobb, CA"
nc73426946,39.4845,-123.3185,"7km NE of Brooktrails, CA"
nc73426951,37.633,-119.041,"6km W of Mammoth Lakes, CA"
nc73426956,38.813,-122.831,"8km WNW of The Geysers, CA"
nc73426961,38.8161659,-122.8218307,"7km NW of The Geysers, CA"
nc73426966,39.4816667,-123.3226667,"7km NE of Brooktrails, CA"
nc73426971,38.8341675,-122.8193359,"8km NW of The Geysers, CA"
nc73426981,38.7750015,-122.7433319,"1km ESE of The Geysers, CA"
nc73426986,38.556,-122.3131667,"12km E of Angwin, CA"
nc73426991,38.8348351,-122.8095016,"8km W of Cobb, CA"
nc73427006,38.8149986,-122.8318329,"8km WNW of The Geysers, CA"
nc73427011,39.932,-120.7898333,"3km NNE of Spring Garden, CA"
nc73427016,38.8133316,-122.8276672,"7km WNW of The Geysers, CA"
nc73427026,38.8209991,-122.8160019,"7km NW of The Geysers, CA"
nc73427031,38.8333321,-122.8195038,"8km NW of The Geysers, CA"
nc73427036,38.8261681,-122.7985001,"6km NW of The Geysers, CA"
nc73427041,38.7944984,-122.8093338,"5km WNW of The Geysers, CA"
nc73427046,38.7896652,-122.817337,"6km WNW of The Geysers, CA"
nc73427051,37.6411667,-119.3851667,"20km ESE of Yosemite Valley, CA"
nc73427056,36.3821667,-120.9596667,"23km SE of Pinnacles, CA"
nc73427061,38.8058333,-122.8105,"6km NW of The Geysers, CA"
nc73427076,36.9586667,-121.5825,"5km SSW of Gilroy, CA"
nc73427086,38.8158333,-122.8176667,"7km NW of The Geysers, CA"
nc73427091,40.3973333,-123.9196667,"19km SE of Rio Dell, CA"
nc73427096,36.1425,-120.0475,"8km SE of Huron, CA"
nc73427111,38.8251648,-122.7861633,"6km W of Cobb, CA"
nc73427116,38.8258324,-122.7858353,"6km W of Cobb, CA"
nc73427126,37.3295,-122.2156667,"6km SSE of Portola Valley, CA"
nc73427136,38.834,-122.8191667,"8km NW of The Geysers, CA"
nc73427156,38.8321648,-122.8191681,"8km NW of The Geysers, CA"
nc73427161,35.9678333,-120.5123333,"11km NW of Parkfield, CA"
nc73427166,36.6826667,-121.2853333,"12km SSE of Tres Pinos, CA"
nc73427176,38.8344994,-122.8083344,"8km W of Cobb, CA"
nc73427186,38.7911682,-122.7241669,"3km ENE of The Geysers, CA"
nc73427191,38.8296667,-122.8155,"8km NW of The Geysers, CA"
nc73427196,38.8283348,-122.8146667,"8km NW of The Geysers, CA"
nc73427206,38.8175011,-122.8243332,"7km NW of The Geysers, CA"
nc73427211,38.798,-122.8146667,"6km WNW of The Geysers, CA"
nc73427226,36.5806667,-121.0375,"11km ENE of Pinnacles, CA"
nc73427241,38.7830009,-122.7353363,"2km ENE of The Geysers, CA"
nc73427246,38.8256683,-122.8548355,"10km WNW of The Geysers, CA"
nc73427251,38.8375,-122.8081667,"8km WNW of Cobb, CA"
nc73427261,38.8306667,-122.8025,"7km W of Cobb, CA"
nc73427266,38.815,-122.8086667,"6km NW of The Geysers, CA"
nc73427271,38.7786667,-122.766,"1km W of The Geysers, CA"
nc73427286,40.4608333,-121.3713333,"20km NE of Mineral, CA"
nc73427301,37.4105,-121.7585,"8km NE of Alum Rock, CA"
nc73427306,38.8276672,-122.8116684,"7km NW of The Geysers, CA"
nc73427311,36.6971667,-121.3751667,"11km SSW of Tres Pinos, CA"
nc73427331,38.8128319,-122.8236694,"7km NW of The Geysers, CA"
nc73427336,38.7966652,-122.8151703,"6km WNW of The Geysers, CA"
nc73427341,38.8133316,-122.8263321,"7km WNW of The Geysers, CA"
nc73427351,35.982,-120.5351667,"13km NW of Parkfield, CA"
nc73427356,38.8120003,-122.8150024,"6km NW of The Geysers, CA"
nc73427366,38.823,-122.855,"10km WNW of The Geysers, CA"
nc73427371,38.8345,-122.8076667,"8km W of Cobb, CA"
nc73427381,38.0383333,-118.7691667,"29km SE of Bodie, CA"
nc73427386,38.819,-122.7618333,"3km W of Cobb, CA"
nc73427396,37.63,-118.9113333,"6km E of Mammoth Lakes, CA"
nc73427401,38.4213333,-122.2265,"12km E of Yountville, CA"
nc73427406,38.7953333,-122.792,"4km WNW of The Geysers, CA"
nc73427411,37.6241667,-119.3401667,"25km ESE of Yosemite Valley, CA"
nc73427416,38.8281667,-122.7488333,"2km WNW of Cobb, CA"
nc73427426,38.832,-122.8823333,"12km ENE of Cloverdale, CA"
nc73427441,38.041,-118.7651667,"29km SE of Bodie, CA"
nc73427446,38.0438333,-118.7673333,"28km SE of Bodie, CA"
nc73427451,38.8331667,-122.8823333,"12km ENE of Cloverdale, CA"
nc73427461,37.5505,-118.852,"15km SE of Mammoth Lakes, CA"
nc73427466,38.8076667,-122.8253333,"7km WNW of The Geysers, CA"
nc73427471,38.837,-122.7828333,"5km WNW of Cobb, CA"
nc73427476,38.8086667,-122.739,"2km SW of Cobb, CA"
nc73427486,35.9016667,-120.4321667,"0km N of Parkfield, CA"
nc73427491,38.8146667,-122.8075,"6km NW of The Geysers, CA"
nc73427496,38.8203333,-122.8096667,"7km NW of The Geysers, CA"
nc73427506,39.7893333,-123.3526667,"9km W of Covelo, CA"
nc73427516,38.8083333,-122.8276667,"7km WNW of The Geysers, CA"
nc73427521,38.8381667,-122.8091667,"8km WNW of Cobb, CA"
nc73427541,40.7888333,-123.384,"27km SE of Willow Creek, CA"
nc73427571,40.2361667,-121.38,"15km WSW of Chester, CA"
nc73427596,38.8266678,-122.8051682,"7km NW of The Geysers, CA"
nc73427606,40.3005,-124.445,"14km WSW of Petrolia, CA"
nc73427616,38.834,-122.8075,"7km W of Cobb, CA"
nc73427621,40.2921667,-124.4453333,"14km WSW of Petrolia, CA"
nc73427626,38.8341667,-122.8085,"8km W of Cobb, CA"
nc73427636,40.653,-121.2336667,"39km N of Chester, CA"
nc73427641,40.2998333,-124.555,"23km W of Petrolia, CA"
nc73427646,37.5943333,-118.9778333,"5km S of Mammoth Lakes, CA"
nc73427656,37.643,-118.9673333,"1km ENE of Mammoth Lakes, CA"
nc73427661,37.8548333,-122.2385,"3km N of Piedmont, CA"
nc73427666,38.037,-118.7875,"28km SE of Bodie, CA"
nc73427671,38.8341675,-122.8178329,"8km NW of The Geysers, CA"
nc73427676,38.8391685,-122.8236694,"9km WNW of Cobb, CA"
nc73427681,38.0445,-118.7313333,"31km SE of Bodie, CA"
nc73427691,40.742,-123.3063333,"23km NNW of Hayfork, CA"
nc73427696,39.5363333,-122.006,"16km E of Willows, CA"
nc73427711,38.8143349,-122.8259964,"7km NW of The Geysers, CA"
nc73427716,38.0383333,-118.7975,"27km SE of Bodie, CA"
nc73427721,40.304,-124.3945,"10km WSW of Petrolia, CA"
nc73427736,38.8358345,-122.7903366,"6km WNW of Cobb, CA"
nc73427741,36.809,-121.5358333,"4km S of San Juan Bautista, CA"
nc73427746,38.8013344,-122.7741699,"3km NNW of The Geysers, CA"
nc73427751,38.8310013,-122.7559967,"3km WNW of Cobb, CA"
nc73427756,40.6615,-124.894,"54km W of Ferndale, CA"
nc73427761,38.7970009,-122.8166656,"6km WNW of The Geysers, CA"
nc73427766,38.8121667,-122.8166667,"6km NW of The Geysers, CA"
nc73427771,38.8331667,-122.8075,"7km W of Cobb, CA"
nc73427776,38.836,-122.8003333,"7km WNW of Cobb, CA"
nc73427781,38.8185005,-122.8071671,"6km NW of The Geysers, CA"
nc73427786,38.8100014,-122.8264999,"7km WNW of The Geysers, CA"
nc73427791,38.8213348,-122.7803345,"5km W of Cobb, CA"
nc73427796,37.415,-121.7673333,"8km NE of Alum Rock, CA"
nc73427801,37.8215,-121.954,"2km SSE of Diablo, CA"
nc73427821,38.8084984,-122.8255005,"7km WNW of The Geysers, CA"
nc73427841,37.5268333,-118.8258333,"13km WSW of Toms Place, CA"
nc73427856,38.78,-122.7225,"3km WNW of Anderson Springs, CA"
nc73427861,38.8916667,-122.7953333,"10km NW of Cobb, CA"
nc73427866,38.7801667,-122.7243333,"3km E of The Geysers, CA"
nc73427871,37.6365,-118.9471667,"3km E of Mammoth Lakes, CA"
nc73427876,38.7788333,-122.7213333,"3km W of Anderson Springs, CA"
nc73427881,37.6356667,-118.9471667,"3km E of Mammoth Lakes, CA"
nc73427886,36.6686667,-121.2921667,"14km S of Tres Pinos, CA"
nc73427891,38.7836685,-122.7600021,"1km NNW of The Geysers, CA"
nc73427906,37.4098333,-122.2113333,"4km NE of Portola Valley, CA"
nc73427911,38.798,-122.821,"6km WNW of The Geysers, CA"
nc73427921,38.8358333,-122.7948333,"6km WNW of Cobb, CA"
nc73427926,38.8353348,-122.7900009,"6km WNW of Cobb, CA"
nc73427931,38.8363333,-122.7948333,"6km WNW of Cobb, CA"
nc73427936,36.0041667,-120.5821667,"18km NW of Parkfield, CA"
nc73427941,38.8243332,-122.8031693,"7km NW of The Geysers, CA"
nc73427946,38.8255,-122.802,"7km NW of The Geysers, CA"
nc73427951,38.8218346,-122.8093338,"7km NW of The Geysers, CA"
nc73427956,37.4151667,-122.2096667,"4km WSW of Stanford, CA"
nc73427966,38.8093338,-122.8259964,"7km WNW of The Geysers, CA"
nc73427976,35.7813333,-120.3241667,"7km NNW of Cholame, CA"
nc73427981,38.800499,-122.770668,"3km NNW of The Geysers, CA"
nc73427991,38.8101654,-122.7900009,"5km NW of The Geysers, CA"
nc73427996,38.814167,-122.8106689,"6km NW of The Geysers, CA"
nc73428011,38.8348351,-122.8133316,"8km W of Cobb, CA"
nc73428021,38.814,-122.8226667,"7km NW of The Geysers, CA"
nc73428026,35.9635,-120.5126667,"10km NW of Parkfield, CA"
nc73428036,37.6191667,-118.8776667,"9km ESE of Mammoth Lakes, CA"
nc73428051,37.5958333,-118.8726667,"10km ESE of Mammoth Lakes, CA"
nc73428061,37.638,-118.9481667,"3km E of Mammoth Lakes, CA"
nc73428066,40.3366667,-125.106,"70km W of Petrolia, CA"
nc73428076,38.8241667,-122.7891667,"6km W of Cobb, CA"
nc73428086,37.3798333,-122.2586667,"2km WSW of Portola Valley, CA"
nc73428091,37.6378333,-118.9505,"2km E of Mammoth Lakes, CA"
nc73428096,40.3015,-124.4731667,"16km W of Petrolia, CA"
nc73428101,38.834,-122.8021667,"7km W of Cobb, CA"
nc73428116,37.6263333,-118.836,"13km E of Mammoth Lakes, CA"
nc73428121,37.3738333,-121.7641667,"6km E of Alum Rock, CA"
nc73428126,37.4108333,-122.2083333,"4km NE of Portola Valley, CA"
nc73428131,37.4136667,-122.2093333,"4km WSW of Stanford, CA"
nc73428136,35.8651667,-120.4021667,"4km SE of Parkfield, CA"
nc73428141,38.0463333,-118.7341667,"30km SE of Bodie, CA"
nc73428151,38.7594986,-122.7313309,"3km SE of The Geysers, CA"
nc73428156,37.6715,-119.4413333,"14km ESE of Yosemite Valley, CA"
nc73428171,38.8346672,-122.8115005,"8km W of Cobb, CA"
nc73428186,37.6376667,-118.9493333,"3km E of Mammoth Lakes, CA"
nc73428191,38.8341667,-122.8126667,"8km W of Cobb, CA"
nc73428196,38.8168335,-122.760498,"3km W of Cobb, CA"
nc73428201,38.8195,-122.7643356,"4km W of Cobb, CA"
nc73428206,38.8041667,-122.7783333,"4km NNW of The Geysers, CA"
nc73428216,37.6331667,-118.9113333,"6km E of Mammoth Lakes, CA"
nc73428226,38.7983333,-122.8156667,"6km WNW of The Geysers, CA"
nc73428231,38.8084984,-122.8030014,"5km NW of The Geysers, CA"
nc73428236,38.8346672,-122.8081665,"8km W of Cobb, CA"
nc73428241,38.8059998,-122.7916641,"4km NW of The Geysers, CA"
nc73428246,36.6778333,-120.8686667,"29km ENE of Pinnacles, CA"
nc73428251,38.809166,-122.8284988,"7km WNW of The Geysers, CA"
nc73428256,38.8138351,-122.8293304,"8km WNW of The Geysers, CA"
nc73428261,38.0425,-118.7601667,"29km SE of Bodie, CA"
nc73428271,36.6086667,-121.1233333,"9km NNE of Pinnacles, CA"
nc73428276,37.504,-118.8408333,"16km WSW of Toms Place, CA"
nc73428291,38.8056679,-122.7788315,"4km NNW of The Geysers, CA"
nc73428311,38.793499,-122.7614975,"2km NNW of The Geysers, CA"
nc73428321,38.8370018,-122.8291702,"9km NW of The Geysers, CA"
nc73428326,39.2675,-123.2243333,"2km W of Redwood Valley, CA"
nc73428331,38.8063316,-122.8261642,"7km WNW of The Geysers, CA"
nc73428336,38.8339996,-122.8300018,"9km NW of The Geysers, CA"
nc73428341,38.8076668,-122.8274994,"7km WNW of The Geysers, CA"
nc73428346,37.4885,-118.8078333,"14km SW of Toms Place, CA"
nc73428356,38.8258324,-122.8586655,"10km WNW of The Geysers, CA"
nc73428361,38.8356667,-122.7906647,"6km WNW of Cobb, CA"
nc73428366,37.6481667,-118.8725,"10km E of Mammoth Lakes, CA"
nc73428371,37.653,-118.872,"10km E of Mammoth Lakes, CA"
nc73428376,37.4566667,-118.8106667,"16km SW of Toms Place, CA"
nc73428381,38.7803345,-122.7433319,"1km ENE of The Geysers, CA"
nc73428391,37.6606667,-118.8898333,"8km ENE of Mammoth Lakes, CA"
nc73428396,37.1188333,-121.5183333,"9km ENE of San Martin, CA"
nc73428401,37.6506667,-118.8875,"8km E of Mammoth Lakes, CA"
nc73428406,38.1143333,-122.4255,"8km E of Black Point-Green Point, CA"
nc73428416,38.7893333,-122.7676697,"2km NW of The Geysers, CA"
nc73428421,40.6288333,-122.1398333,"8km E of Bella Vista, CA"
nc73428426,36.7695,-121.3953333,"6km SSW of Ridgemark, CA"
nc73428436,38.786335,-122.7333298,"2km ENE of The Geysers, CA"
nc73428446,36.4968333,-121.0408333,"10km ESE of Pinnacles, CA"
nc73428456,36.8866667,-121.6243333,"2km E of Aromas, CA"
nc73428461,38.046,-118.7333333,"30km SE of Bodie, CA"
nc73428471,38.7876663,-122.7685013,"2km NW of The Geysers, CA"
nc73428476,38.0463333,-118.754,"29km SE of Bodie, CA"
nc73428486,38.7896667,-122.7663333,"2km NNW of The Geysers, CA"
nc73428491,36.4835,-121.0206667,"12km ESE of Pinnacles, CA"
nc73428501,38.7726669,-122.7154999,"2km W of Anderson Springs, CA"
nc73428511,40.3773333,-125.1793333,"76km W of Petrolia, CA"
nc73428516,35.987,-120.546,"14km NW of Parkfield, CA"
nc73428526,40.5688333,-121.6058333,"8km NE of Viola, CA"
nc73428531,38.8233337,-122.8461685,"9km WNW of The Geysers, CA"
nc73428536,38.8416667,-122.839,"10km NW of The Geysers, CA"
nc73428541,37.638,-119.0525,"6km W of Mammoth Lakes, CA"
nc73428551,37.2771667,-121.6551667,"16km E of Seven Trees, CA"
nc73428561,38.802166,-122.7808304,"4km NW of The Geysers, CA"
nc73428566,38.0473333,-118.7353333,"30km SE of Bodie, CA"
nc73428571,38.0436667,-118.7518333,"29km SE of Bodie, CA"
nc73428576,38.0506667,-118.7621667,"28km SE of Bodie, CA"
nc73428581,37.3263333,-122.2178333,"7km SSE of Portola Valley, CA"
nc73428591,38.9868333,-123.3335,"4km SE of Boonville, CA"
nc73428596,36.05,-120.6395,"24km E of San Ardo, CA"
nc73428606,40.0908333,-122.0901667,"6km NE of Gerber, CA"
nc73428616,38.8343333,-122.807,"7km W of Cobb, CA"
nc73428621,38.0471667,-118.7516667,"29km SE of Bodie, CA"
nc73428626,37.4378333,-118.7393333,"13km WNW of Round Valley, CA"
nc73428631,39.4696667,-122.178,"6km SSE of Willows, CA"
nc73428636,37.9198333,-121.9606667,"3km SW of Clayton, CA"
nc73428656,38.788,-122.7698333,"2km NW of The Geysers, CA"
nc73428661,38.8468333,-122.8238333,"9km WNW of Cobb, CA"
nc73428666,38.53,-122.6143333,"6km SSW of Calistoga, CA"
nc73428676,38.7970009,-122.8168335,"6km WNW of The Geysers, CA"
nc73428686,38.8333321,-122.8171692,"8km NW of The Geysers, CA"
nc73428696,38.753,-122.7111667,"3km SW of Anderson Springs, CA"
nc73428701,38.049,-118.7483333,"29km SE of Bodie, CA"
nc73428721,37.6398333,-118.9066667,"6km E of Mammoth Lakes, CA"
nc73428726,38.8123322,-122.8270035,"7km WNW of The Geysers, CA"
nc73428731,38.05,-118.733,"30km SE of Bodie, CA"
nc73428736,39.8658333,-123.8285,"14km N of Rockport, CA"
nc73428741,38.808,-122.821,"7km WNW of The Geysers, CA"
nc73428756,39.436,-120.2973333,"16km NW of Truckee, CA"
nc73428766,36.7918333,-121.4756667,"8km SE of San Juan Bautista, CA"
nc73428771,39.3896667,-121.2296667,"9km SSE of Challenge-Brownsville, CA"
nc73428791,38.8231659,-122.8095016,"7km NW of The Geysers, CA"
nc73428816,38.7883333,-122.77,"2km NW of The Geysers, CA"
nc73428826,40.145,-123.8375,"3km NNW of Redway, CA"
nc73428831,40.1475,-123.836,"3km NNW of Redway, CA"
nc73428836,37.6268333,-118.9278333,"5km ESE of Mammoth Lakes, CA"
nc73428841,37.626,-118.9281667,"5km ESE of Mammoth Lakes, CA"
nc73428846,38.8276672,-122.8141632,"8km NW of The Geysers, CA"
nc73428851,37.5225,-118.9941667,"13km S of Mammoth Lakes, CA"
nc73428856,37.3755,-121.616,"19km E of Alum Rock, CA"
nc73428861,36.4166667,-121.004,"18km SE of Pinnacles, CA"
nc73428866,38.043,-118.766,"28km SE of Bodie, CA"
nc73428871,38.7830009,-122.7269974,"3km ENE of The Geysers, CA"
nc73428876,37.6325,-118.929,"4km E of Mammoth Lakes, CA"
nc73428891,38.8180008,-122.7953339,"6km NW of The Geysers, CA"
nc73428896,38.8170013,-122.8251648,"7km NW of The Geysers, CA"
nc73428901,38.8068352,-122.8188324,"6km WNW of The Geysers, CA"
nc73428906,38.7820015,-122.7156677,"2km WNW of Anderson Springs, CA"
nc73428911,38.8138351,-122.8096695,"6km NW of The Geysers, CA"
nc73428916,38.786499,-122.7701645,"2km NW of The Geysers, CA"
nc73428921,38.0423333,-118.748,"30km SE of Bodie, CA"
nc73428926,40.2248333,-121.3766667,"15km SW of Chester, CA"
nc73428931,38.8328323,-122.8190002,"8km NW of The Geysers, CA"
nc73428941,38.8163338,-122.8236694,"7km NW of The Geysers, CA"
nc73428946,38.7869987,-122.7701645,"2km NW of The Geysers, CA"
nc73428951,37.638,-118.9476667,"3km E of Mammoth Lakes, CA"
nc73428956,38.8349991,-122.7906647,"6km WNW of Cobb, CA"
nc73428961,39.4328333,-120.2933333,"15km NW of Truckee, CA"
nc73428971,38.8126667,-122.794,"5km NW of The Geysers, CA"
